filename,split,city,latitude,longitude,material_class,country,continent,height,numstories,roofshape,fpArea,solar_panels,multiple_materials,caption,date_collected
Haiti-hurricane-matthew_00000072_pre_disaster_47afa605-762e-4daf-8d0a-5133424e4619.png,train,haiti,18.19093996451142,-73.77581750550755,AmorphousConcrete,Haiti,North America,,,Flat,11.254705576005447,False,False,"flat flat concrete / cement roof in Haiti, 11 ft² footprint",Q2-2025
Haiti-hurricane-matthew_00000072_pre_disaster_47f8d604-2752-45d3-9ca2-27c82b33397f.png,train,haiti,18.191127253180255,-73.77515963833814,AmorphousConcrete,Haiti,North America,,,Flat,6.850454757748705,False,False,"flat flat concrete / cement roof in Haiti, 6 ft² footprint",Q2-2025
Haiti-hurricane-matthew_00000072_pre_disaster_49e810df-e712-482c-b3c9-cc2b78df6558.png,train,haiti,18.191300571289737,-73.77531722371818,AmorphousConcrete,Haiti,North America,,,Flat,4.201887449948296,False,False,"flat flat concrete / cement roof in Haiti, 4 ft² footprint",Q2-2025
Haiti-hurricane-matthew_00000072_pre_disaster_82aa76d8-2a40-49d6-a26e-953217c3860a.png,train,haiti,18.19147074865681,-73.77545516415493,MetalSheetMaterials,Haiti,North America,,,,4.309794732715709,False,False,"corrugated or tiled metal roof (silver / dark / painted) in Haiti, 4 ft² footprint",Q2-2025
Haiti-hurricane-matthew_00000072_pre_disaster_b831e244-48a3-4690-8175-39bf508cb33e.png,train,haiti,18.191579594937256,-73.77586623205349,AmorphousConcrete,Haiti,North America,,,Flat,8.036206025690825,False,False,"flat flat concrete / cement roof in Haiti, 8 ft² footprint",Q2-2025
Haiti-hurricane-matthew_00000072_pre_disaster_ba855de8-6829-4615-9058-aad042e63286.png,train,haiti,18.19125747353263,-73.7749454150555,MetalSheetMaterials,Haiti,North America,,,,2.430566174241502,False,False,"corrugated or tiled metal roof (silver / dark / painted) in Haiti, 2 ft² footprint",Q2-2025
Haiti-hurricane-matthew_00000072_pre_disaster_bcd83ae4-517f-437c-8c63-fdf367e32af8.png,train,haiti,18.19207223790265,-73.7761392166705,AmorphousConcrete,Haiti,North America,,,Flat,7.223314962224292,False,False,"flat flat concrete / cement roof in Haiti, 7 ft² footprint",Q2-2025
Haiti-hurricane-matthew_00000075_pre_disaster_273cdbba-6c74-4d05-8ff2-54d99f17b286.png,train,haiti,18.212750499344924,-73.77187164850153,MetalSheetMaterials,Haiti,North America,,,,3.439390052875898,False,False,"corrugated or tiled metal roof (silver / dark / painted) in Haiti, 3 ft² footprint",Q2-2025
Haiti-hurricane-matthew_00000129_pre_disaster_7bc84ec1-b306-4905-a084-cae963f6226d.png,train,haiti,18.193565636492888,-73.77620104841635,MetalSheetMaterials,Haiti,North America,,,,26.02946719870518,False,False,"corrugated or tiled metal roof (silver / dark / painted) in Haiti, 26 ft² footprint",Q2-2025
Haiti-hurricane-matthew_00000129_pre_disaster_deae73d6-82f3-4948-ba9a-5eef225288a5.png,train,haiti,18.193481491946496,-73.7767491904852,MetalSheetMaterials,Haiti,North America,,,,3.454977332156734,False,False,"corrugated or tiled metal roof (silver / dark / painted) in Haiti, 3 ft² footprint",Q2-2025
Haiti-hurricane-matthew_00000129_pre_disaster_eb71d9cd-ba6e-42d3-a6b5-922252dde480.png,train,haiti,18.19506520201448,-73.7765023750877,MetalSheetMaterials,Haiti,North America,,,,4.265260369939991,False,False,"corrugated or tiled metal roof (silver / dark / painted) in Haiti, 4 ft² footprint",Q2-2025
Haiti-hurricane-matthew_00000130_pre_disaster_5202d110-534a-4907-9a17-99594cb5e3d8.png,train,haiti,18.18867898986629,-73.77652321065739,AmorphousConcrete,Haiti,North America,,,Flat,8.979198360269978,False,False,"flat flat concrete / cement roof in Haiti, 8 ft² footprint",Q2-2025
Haiti-hurricane-matthew_00000130_pre_disaster_5eaada3b-1c5e-43e6-909d-78e33159ebcc.png,train,haiti,18.18788075280386,-73.77980637620051,MetalSheetMaterials,Haiti,North America,,,,5.4113399648989615,False,False,"corrugated or tiled metal roof (silver / dark / painted) in Haiti, 5 ft² footprint",Q2-2025
Haiti-hurricane-matthew_00000130_pre_disaster_6e319fb1-0d63-40be-aa19-1121719f03d3.png,train,haiti,18.188371191594957,-73.78012700101112,MetalSheetMaterials,Haiti,North America,,,,3.285820758243738,False,False,"corrugated or tiled metal roof (silver / dark / painted) in Haiti, 3 ft² footprint",Q2-2025
Haiti-hurricane-matthew_00000130_pre_disaster_7cbf2588-8330-4764-8ac8-7b9add33c8ec.png,train,haiti,18.188104254475245,-73.77737749767633,AmorphousConcrete,Haiti,North America,,,Flat,9.723478786597944,False,False,"flat flat concrete / cement roof in Haiti, 9 ft² footprint",Q2-2025
Haiti-hurricane-matthew_00000130_pre_disaster_afdee385-f22f-4807-826f-e5a43ffa09cc.png,train,haiti,18.188391144604815,-73.77744945300502,AmorphousConcrete,Haiti,North America,,,Flat,11.0150970605199,False,False,"flat flat concrete / cement roof in Haiti, 11 ft² footprint",Q2-2025
Haiti-hurricane-matthew_00000130_pre_disaster_b565d3f4-56fe-4748-9a32-f467a352f33f.png,train,haiti,18.18897718984131,-73.7778853629696,MetalSheetMaterials,Haiti,North America,,,,5.786591940624973,False,False,"corrugated or tiled metal roof (silver / dark / painted) in Haiti, 5 ft² footprint",Q2-2025
Haiti-hurricane-matthew_00000130_pre_disaster_c238293a-62f7-4c5c-84fa-d9145869da26.png,train,haiti,18.186797869774143,-73.77885528272431,MetalSheetMaterials,Haiti,North America,,,,2.991669955532092,False,False,"corrugated or tiled metal roof (silver / dark / painted) in Haiti, 2 ft² footprint",Q2-2025
Haiti-hurricane-matthew_00000130_pre_disaster_c84ef429-1192-4fa7-b9ea-39b523c0fa55.png,train,haiti,18.1887752264366,-73.77777447050451,MetalSheetMaterials,Haiti,North America,,,,5.109527468265672,False,False,"corrugated or tiled metal roof (silver / dark / painted) in Haiti, 5 ft² footprint",Q2-2025
Haiti-hurricane-matthew_00000130_pre_disaster_ee43925d-f6e5-4c8e-92fa-d2140fa363ec.png,train,haiti,18.187395332285178,-73.78017581557816,MetalSheetMaterials,Haiti,North America,,,,3.714831931633752,False,False,"corrugated or tiled metal roof (silver / dark / painted) in Haiti, 3 ft² footprint",Q2-2025
Haiti-hurricane-matthew_00000133_pre_disaster_e0cd76ef-3c39-49a3-8044-a8d13caa7d5a.png,train,haiti,18.631990618449308,-74.11236350240905,AmorphousConcrete,Haiti,North America,,,Flat,4.12326711673149,False,True,"flat flat concrete / cement roof in Haiti, multiple materials detected, 4 ft² footprint",Q2-2025
Haiti-hurricane-matthew_00000134_pre_disaster_27756018-1bdb-4dae-8922-9ac160f951b0.png,train,haiti,18.19378507740388,-73.77128300776162,AmorphousConcrete,Haiti,North America,,,Flat,6.713301895713426,False,False,"flat flat concrete / cement roof in Haiti, 6 ft² footprint",Q2-2025
Haiti-hurricane-matthew_00000134_pre_disaster_39a56d4d-48bc-4a9a-b55d-72fd0d06a589.png,train,haiti,18.193711303724072,-73.77212184003325,AmorphousConcrete,Haiti,North America,,,Flat,8.60340955246444,False,False,"flat flat concrete / cement roof in Haiti, 8 ft² footprint",Q2-2025
Haiti-hurricane-matthew_00000134_pre_disaster_4f1c09af-c04d-441e-8f5f-d85d8044acaa.png,train,haiti,18.195691758836116,-73.7704831814025,AmorphousConcrete,Haiti,North America,,,Flat,6.195667578146119,False,False,"flat flat concrete / cement roof in Haiti, 6 ft² footprint",Q2-2025
Haiti-hurricane-matthew_00000134_pre_disaster_5f8fde59-e355-4f59-84f7-8efb8f7968fd.png,train,haiti,18.194537855953936,-73.7698995618119,AmorphousConcrete,Haiti,North America,,,Flat,3.278530747363037,False,False,"flat flat concrete / cement roof in Haiti, 3 ft² footprint",Q2-2025
Haiti-hurricane-matthew_00000134_pre_disaster_78ae9f68-35ec-4e74-bd4c-96aae8337754.png,train,haiti,18.193633384402347,-73.77142122051212,AmorphousConcrete,Haiti,North America,,,Flat,14.066692310577835,False,False,"flat flat concrete / cement roof in Haiti, 14 ft² footprint",Q2-2025
Haiti-hurricane-matthew_00000134_pre_disaster_c7692bcc-0f0f-4710-9964-0ad7b334756d.png,train,haiti,18.19385488583656,-73.76935180369962,AmorphousConcrete,Haiti,North America,,,Flat,4.793874512817831,False,False,"flat flat concrete / cement roof in Haiti, 4 ft² footprint",Q2-2025
Haiti-hurricane-matthew_00000134_pre_disaster_d51594c8-f893-4cf0-bf25-126396fdfc15.png,train,haiti,18.19556904823013,-73.76978705461076,AmorphousMembrane,Haiti,North America,,,Flat,3.873791063364217,False,False,"flat membrane roof (bright EPDM / TPO) in Haiti, 3 ft² footprint",Q2-2025
Haiti-hurricane-matthew_00000134_pre_disaster_dbbff47d-1a67-4113-b6c8-89238b0c90a3.png,train,haiti,18.195038815963915,-73.7712396985151,AmorphousConcrete,Haiti,North America,,,Flat,17.375848380934947,False,False,"flat flat concrete / cement roof in Haiti, 17 ft² footprint",Q2-2025
Haiti-hurricane-matthew_00000134_pre_disaster_fdc7bfea-707c-4451-ba7a-3d504f9689bd.png,train,haiti,18.19343506882803,-73.7720644772885,AmorphousConcrete,Haiti,North America,,,Flat,8.115873702037332,False,False,"flat flat concrete / cement roof in Haiti, 8 ft² footprint",Q2-2025
Haiti-hurricane-matthew_00000136_pre_disaster_6b5751ad-75c8-4358-99c5-35e7a809084d.png,train,haiti,18.188437359475063,-73.77634462547,MetalSheetMaterials,Haiti,North America,,,,8.753598698614237,False,False,"corrugated or tiled metal roof (silver / dark / painted) in Haiti, 8 ft² footprint",Q2-2025
Haiti-hurricane-matthew_00000136_pre_disaster_75ddece2-2f2a-4a15-923d-06564cdcd824.png,train,haiti,18.188215309626187,-73.77525958057315,AmorphousConcrete,Haiti,North America,,,Flat,5.214939737713679,False,False,"flat flat concrete / cement roof in Haiti, 5 ft² footprint",Q2-2025
Haiti-hurricane-matthew_00000140_pre_disaster_0f38a2c7-6115-4701-942f-ba32da9d3483.png,train,haiti,18.17756041587522,-73.77582086503018,MetalSheetMaterials,Haiti,North America,,,,20.127042573426333,False,False,"corrugated or tiled metal roof (silver / dark / painted) in Haiti, 20 ft² footprint",Q2-2025
Haiti-hurricane-matthew_00000140_pre_disaster_10e137e6-5fa2-4258-835c-434752b0724a.png,train,haiti,18.17814032915483,-73.77575519986563,MetalSheetMaterials,Haiti,North America,,,,3.7747772370521218,False,False,"corrugated or tiled metal roof (silver / dark / painted) in Haiti, 3 ft² footprint",Q2-2025
Haiti-hurricane-matthew_00000140_pre_disaster_7f997625-fd1c-48e8-862c-f9d65221c981.png,train,haiti,18.17888864946334,-73.77420546656049,AmorphousConcrete,Haiti,North America,,,Flat,5.054684628133175,False,False,"flat flat concrete / cement roof in Haiti, 5 ft² footprint",Q2-2025
Haiti-hurricane-matthew_00000140_pre_disaster_9f2ab80d-2662-40b8-b5a6-51a27971aeff.png,train,haiti,18.1788857878871,-73.7732996642486,AmorphousConcrete,Haiti,North America,,,Flat,4.227001240036345,False,False,"flat flat concrete / cement roof in Haiti, 4 ft² footprint",Q2-2025
Haiti-hurricane-matthew_00000140_pre_disaster_b18d06d1-67fc-4831-a13b-bc5cb68ba918.png,train,haiti,18.17875630701711,-73.77418426912567,AmorphousConcrete,Haiti,North America,,,Flat,3.35820827888796,False,False,"flat flat concrete / cement roof in Haiti, 3 ft² footprint",Q2-2025
Haiti-hurricane-matthew_00000140_pre_disaster_ddfb5378-f8f8-482b-b93e-1323ffcd4b57.png,train,haiti,18.178929310032903,-73.77360747666566,AmorphousConcrete,Haiti,North America,,,Flat,7.378773234986276,False,False,"flat flat concrete / cement roof in Haiti, 7 ft² footprint",Q2-2025
Haiti-hurricane-matthew_00000143_pre_disaster_0075282e-f3cb-4edf-b616-fba593bb7a40.png,train,haiti,18.194795778365997,-73.75885364635236,MetalSheetMaterials,Haiti,North America,,,,8.156779726883077,False,False,"corrugated or tiled metal roof (silver / dark / painted) in Haiti, 8 ft² footprint",Q2-2025
Haiti-hurricane-matthew_00000143_pre_disaster_05ab83b8-7301-4709-8856-12652eb6f16e.png,train,haiti,18.19544073215704,-73.75886723909754,MetalSheetMaterials,Haiti,North America,,,,2.7382412920731367,False,True,"corrugated or tiled metal roof (silver / dark / painted) in Haiti, multiple materials detected, 2 ft² footprint",Q2-2025
Haiti-hurricane-matthew_00000143_pre_disaster_22487c73-21fb-4968-a3b2-a2fe6bbfffe6.png,train,haiti,18.195665072412673,-73.75858743912656,MetalSheetMaterials,Haiti,North America,,,,3.176190199883979,False,True,"corrugated or tiled metal roof (silver / dark / painted) in Haiti, multiple materials detected, 3 ft² footprint",Q2-2025
Haiti-hurricane-matthew_00000143_pre_disaster_2c578b49-5dfc-4908-8395-d5ec868710da.png,train,haiti,18.193546956696434,-73.76087610439475,MetalSheetMaterials,Haiti,North America,,,,3.5941863805100365,False,False,"corrugated or tiled metal roof (silver / dark / painted) in Haiti, 3 ft² footprint",Q2-2025
Haiti-hurricane-matthew_00000143_pre_disaster_2dc9f251-6c72-409d-8740-aa172478393c.png,train,haiti,18.195477523510178,-73.76124461955216,MetalSheetMaterials,Haiti,North America,,,,3.651350706941279,False,False,"corrugated or tiled metal roof (silver / dark / painted) in Haiti, 3 ft² footprint",Q2-2025
Haiti-hurricane-matthew_00000143_pre_disaster_3e235470-260d-4a20-8a02-5bd416fd89c2.png,train,haiti,18.195694236994413,-73.7593429941631,MetalSheetMaterials,Haiti,North America,,,,3.616061417919294,False,False,"corrugated or tiled metal roof (silver / dark / painted) in Haiti, 3 ft² footprint",Q2-2025
Haiti-hurricane-matthew_00000143_pre_disaster_6ef6f638-29b6-45f1-a40a-47036f2ef468.png,train,haiti,18.19532781702367,-73.76148318431876,AmorphousConcrete,Haiti,North America,,,Flat,3.526469720839987,False,False,"flat flat concrete / cement roof in Haiti, 3 ft² footprint",Q2-2025
Haiti-hurricane-matthew_00000143_pre_disaster_8fff7bce-77a8-4632-a4c8-43d565fb8fc2.png,train,haiti,18.19496845567309,-73.75882478822138,MetalSheetMaterials,Haiti,North America,,,,3.6309557997544695,False,False,"corrugated or tiled metal roof (silver / dark / painted) in Haiti, 3 ft² footprint",Q2-2025
Haiti-hurricane-matthew_00000143_pre_disaster_935af750-b48d-44c5-ba5d-9832522d056b.png,train,haiti,18.194828714252836,-73.7585611381683,AmorphousConcrete,Haiti,North America,,,Flat,8.414930580156632,False,False,"flat flat concrete / cement roof in Haiti, 8 ft² footprint",Q2-2025
Haiti-hurricane-matthew_00000143_pre_disaster_a6ff057a-750c-4555-8d40-2e20dca6da27.png,train,haiti,18.195060578583313,-73.75833815708033,MetalSheetMaterials,Haiti,North America,,,,3.7899592921540153,False,False,"corrugated or tiled metal roof (silver / dark / painted) in Haiti, 3 ft² footprint",Q2-2025
Haiti-hurricane-matthew_00000143_pre_disaster_ab17b7f6-f3fc-4c0a-ba3f-ab099fedb0d2.png,train,haiti,18.194519443481056,-73.75846898780864,MetalSheetMaterials,Haiti,North America,,,,11.21758448259323,False,False,"corrugated or tiled metal roof (silver / dark / painted) in Haiti, 11 ft² footprint",Q2-2025
Haiti-hurricane-matthew_00000143_pre_disaster_af02c334-eb8e-4177-8555-c8748a7edcda.png,train,haiti,18.195526357024107,-73.75877486984156,MetalSheetMaterials,Haiti,North America,,,,3.997887490535102,False,True,"corrugated or tiled metal roof (silver / dark / painted) in Haiti, multiple materials detected, 3 ft² footprint",Q2-2025
Haiti-hurricane-matthew_00000143_pre_disaster_b14a871c-c700-43a0-96c2-19eb09104a70.png,train,haiti,18.19573891190911,-73.7589851717772,AmorphousConcrete,Haiti,North America,,,Flat,5.971234732212447,False,True,"flat flat concrete / cement roof in Haiti, multiple materials detected, 5 ft² footprint",Q2-2025
Haiti-hurricane-matthew_00000143_pre_disaster_b8998933-2d6f-46a1-9faa-269a6ffffda0.png,train,haiti,18.195911437170405,-73.75860781200606,MetalSheetMaterials,Haiti,North America,,,,5.57683059039503,False,False,"corrugated or tiled metal roof (silver / dark / painted) in Haiti, 5 ft² footprint",Q2-2025
Haiti-hurricane-matthew_00000143_pre_disaster_bfefcaf5-8118-4d8b-ab0b-2bc578b9d40b.png,train,haiti,18.195840576960677,-73.75835468672027,MetalSheetMaterials,Haiti,North America,,,,4.700375877960068,False,True,"corrugated or tiled metal roof (silver / dark / painted) in Haiti, multiple materials detected, 4 ft² footprint",Q2-2025
Haiti-hurricane-matthew_00000143_pre_disaster_c2904126-4072-4bb6-81e1-566a10628629.png,train,haiti,18.1953742673994,-73.75897185340584,AmorphousConcrete,Haiti,North America,,,Flat,2.993997099352647,False,False,"flat flat concrete / cement roof in Haiti, 2 ft² footprint",Q2-2025
Haiti-hurricane-matthew_00000143_pre_disaster_c514d151-8dd2-4599-8508-7eca6dedc226.png,train,haiti,18.195519482818835,-73.7594741840659,MetalSheetMaterials,Haiti,North America,,,,2.908086643447524,False,False,"corrugated or tiled metal roof (silver / dark / painted) in Haiti, 2 ft² footprint",Q2-2025
Haiti-hurricane-matthew_00000143_pre_disaster_da43ce15-9a05-4546-9f05-74f088109e0a.png,train,haiti,18.195621412844336,-73.75874008455011,AmorphousConcrete,Haiti,North America,,,Flat,3.0752070167245527,False,False,"flat flat concrete / cement roof in Haiti, 3 ft² footprint",Q2-2025
Haiti-hurricane-matthew_00000143_pre_disaster_e64ab930-8749-4250-a276-28e91ef57fab.png,train,haiti,18.19555966030605,-73.75847533228736,MetalSheetMaterials,Haiti,North America,,,,5.242972114344562,False,False,"corrugated or tiled metal roof (silver / dark / painted) in Haiti, 5 ft² footprint",Q2-2025
Haiti-hurricane-matthew_00000143_pre_disaster_f0ffcbbd-1312-405c-8a9a-aaa6bf483a70.png,train,haiti,18.19530831815381,-73.75910990835979,AmorphousConcrete,Haiti,North America,,,Flat,3.0823129071015605,False,True,"flat flat concrete / cement roof in Haiti, multiple materials detected, 3 ft² footprint",Q2-2025
Haiti-hurricane-matthew_00000143_pre_disaster_fef295f1-ab86-4e07-9485-c69fb7dfc140.png,train,haiti,18.194795507334252,-73.75863079579018,AmorphousConcrete,Haiti,North America,,,Flat,3.567036864904573,False,False,"flat flat concrete / cement roof in Haiti, 3 ft² footprint",Q2-2025
Haiti-hurricane-matthew_00000145_pre_disaster_4d1b8094-27d2-42c6-a0a8-54049a0ae688.png,train,haiti,18.179982507129527,-73.77160707121597,AmorphousConcrete,Haiti,North America,,,Flat,2.297425640118212,False,False,"flat flat concrete / cement roof in Haiti, 2 ft² footprint",Q2-2025
Haiti-hurricane-matthew_00000145_pre_disaster_6ff58458-aa72-4438-a36e-5ac381d5c75f.png,train,haiti,18.179704641620376,-73.7712933829572,MetalSheetMaterials,Haiti,North America,,,,9.239230023446089,False,False,"corrugated or tiled metal roof (silver / dark / painted) in Haiti, 9 ft² footprint",Q2-2025
Haiti-hurricane-matthew_00000145_pre_disaster_77448eda-4057-4e7e-ada0-12f48f0d1faf.png,train,haiti,18.1795862242758,-73.77170376381345,MetalSheetMaterials,Haiti,North America,,,,7.140133640558669,False,False,"corrugated or tiled metal roof (silver / dark / painted) in Haiti, 7 ft² footprint",Q2-2025
Haiti-hurricane-matthew_00000145_pre_disaster_9e94aad5-302b-4221-a818-f61188ab4782.png,train,haiti,18.1793503184244,-73.7714208794685,MetalSheetMaterials,Haiti,North America,,,,3.3682063839552385,False,True,"corrugated or tiled metal roof (silver / dark / painted) in Haiti, multiple materials detected, 3 ft² footprint",Q2-2025
Haiti-hurricane-matthew_00000145_pre_disaster_c725726a-2ca3-4f0d-b02e-3c22727345df.png,train,haiti,18.180020892240066,-73.77097216448551,MetalSheetMaterials,Haiti,North America,,,,3.178367317938465,False,False,"corrugated or tiled metal roof (silver / dark / painted) in Haiti, 3 ft² footprint",Q2-2025
Haiti-hurricane-matthew_00000145_pre_disaster_df8936b5-1ad9-4e06-94bd-386385ed4d69.png,train,haiti,18.1795610812655,-73.77096262688748,MetalSheetMaterials,Haiti,North America,,,,7.339185197992142,False,True,"corrugated or tiled metal roof (silver / dark / painted) in Haiti, multiple materials detected, 7 ft² footprint",Q2-2025
Haiti-hurricane-matthew_00000152_pre_disaster_000931f0-7c92-4098-b00a-6aa4f57737d7.png,train,haiti,18.19450622680154,-73.7505644074023,MetalSheetMaterials,Haiti,North America,,,,9.54282811127286,False,False,"corrugated or tiled metal roof (silver / dark / painted) in Haiti, 9 ft² footprint",Q2-2025
Haiti-hurricane-matthew_00000152_pre_disaster_05009ffa-38fc-4aa2-af22-a20fe570c272.png,train,haiti,18.195334068430142,-73.74980825789069,AmorphousConcrete,Haiti,North America,,,Flat,6.776044358751882,False,False,"flat flat concrete / cement roof in Haiti, 6 ft² footprint",Q2-2025
Haiti-hurricane-matthew_00000152_pre_disaster_06e6b2d7-658d-474a-8408-5d4df1951887.png,train,haiti,18.195437512182227,-73.75123798968886,AmorphousConcrete,Haiti,North America,,,Flat,10.096589519587578,False,False,"flat flat concrete / cement roof in Haiti, 10 ft² footprint",Q2-2025
Haiti-hurricane-matthew_00000152_pre_disaster_0950df03-6b93-4573-a0f9-05e5bde12692.png,train,haiti,18.19480927488932,-73.7506151381133,MetalSheetMaterials,Haiti,North America,,,,7.827364645322262,False,False,"corrugated or tiled metal roof (silver / dark / painted) in Haiti, 7 ft² footprint",Q2-2025
Haiti-hurricane-matthew_00000152_pre_disaster_1c5e432f-94b2-4e91-b43f-0b58b7bc7d09.png,train,haiti,18.195502993770017,-73.752167283457,AmorphousConcrete,Haiti,North America,,,Flat,4.930259927881533,False,False,"flat flat concrete / cement roof in Haiti, 4 ft² footprint",Q2-2025
Haiti-hurricane-matthew_00000152_pre_disaster_294af449-4543-4246-b780-f131e7912a9e.png,train,haiti,18.193993832484203,-73.7512238729998,MetalSheetMaterials,Haiti,North America,,,,7.950255121088642,False,False,"corrugated or tiled metal roof (silver / dark / painted) in Haiti, 7 ft² footprint",Q2-2025
Haiti-hurricane-matthew_00000152_pre_disaster_2d2ac2f8-7b9d-4f53-a301-771ad6ed2b37.png,train,haiti,18.19393877512323,-73.75323823661678,MetalSheetMaterials,Haiti,North America,,,,4.948971955321768,False,True,"corrugated or tiled metal roof (silver / dark / painted) in Haiti, multiple materials detected, 4 ft² footprint",Q2-2025
Haiti-hurricane-matthew_00000152_pre_disaster_2e5c4b07-e3b6-48f7-a404-8435b682a0f6.png,train,haiti,18.193915346584124,-73.75049878887008,MetalSheetMaterials,Haiti,North America,,,,6.505761018524547,False,False,"corrugated or tiled metal roof (silver / dark / painted) in Haiti, 6 ft² footprint",Q2-2025
Haiti-hurricane-matthew_00000152_pre_disaster_3105a3d3-6515-443f-8960-423db1e01c72.png,train,haiti,18.19361295653432,-73.75022304283408,MetalSheetMaterials,Haiti,North America,,,,17.325506167316792,False,False,"corrugated or tiled metal roof (silver / dark / painted) in Haiti, 17 ft² footprint",Q2-2025
Haiti-hurricane-matthew_00000152_pre_disaster_400934bf-997b-4abb-bf22-70b780576f93.png,train,haiti,18.193800661923127,-73.75327307711622,MetalSheetMaterials,Haiti,North America,,,,5.073652586553259,False,False,"corrugated or tiled metal roof (silver / dark / painted) in Haiti, 5 ft² footprint",Q2-2025
Haiti-hurricane-matthew_00000152_pre_disaster_43d8877e-289f-43d2-8486-88e7b0454847.png,train,haiti,18.194449134585167,-73.7496610343529,MetalSheetMaterials,Haiti,North America,,,,10.86242298006803,False,False,"corrugated or tiled metal roof (silver / dark / painted) in Haiti, 10 ft² footprint",Q2-2025
Haiti-hurricane-matthew_00000152_pre_disaster_469fbbe1-9a4d-4743-a381-e9173f99cf8a.png,train,haiti,18.195163031387462,-73.75064164323297,AmorphousConcrete,Haiti,North America,,,Flat,27.49804821990054,False,False,"flat flat concrete / cement roof in Haiti, 27 ft² footprint",Q2-2025
Haiti-hurricane-matthew_00000152_pre_disaster_4b95fb57-a8b8-44b7-bd6e-c6437c816f27.png,train,haiti,18.193948256282372,-73.75292944795017,AmorphousConcrete,Haiti,North America,,,Flat,7.633127449080403,False,False,"flat flat concrete / cement roof in Haiti, 7 ft² footprint",Q2-2025
Haiti-hurricane-matthew_00000152_pre_disaster_4c4b0ec1-96c5-49e7-8a55-6fb5434079ab.png,train,haiti,18.195668115150585,-73.75336181617476,AmorphousConcrete,Haiti,North America,,,Flat,11.410701693737996,False,False,"flat flat concrete / cement roof in Haiti, 11 ft² footprint",Q2-2025
Haiti-hurricane-matthew_00000152_pre_disaster_5c43238c-5afe-494c-a4c8-2b0271f54cb0.png,train,haiti,18.194580453783963,-73.75065667789227,MetalSheetMaterials,Haiti,North America,,,,8.47355527551851,False,False,"corrugated or tiled metal roof (silver / dark / painted) in Haiti, 8 ft² footprint",Q2-2025
Haiti-hurricane-matthew_00000152_pre_disaster_617132bc-0fa3-4e95-96b3-d71756a1a3b7.png,train,haiti,18.19458427307214,-73.75195637565777,MetalSheetMaterials,Haiti,North America,,,,11.043760155695152,False,False,"corrugated or tiled metal roof (silver / dark / painted) in Haiti, 11 ft² footprint",Q2-2025
Haiti-hurricane-matthew_00000152_pre_disaster_651b2858-2c14-4f89-b6d4-8fd2fc16d7bc.png,train,haiti,18.19353965159346,-73.7534087570278,AmorphousConcrete,Haiti,North America,,,Flat,4.498264429383987,False,False,"flat flat concrete / cement roof in Haiti, 4 ft² footprint",Q2-2025
Haiti-hurricane-matthew_00000152_pre_disaster_65465acf-78c8-43b4-8f99-c8d72fdf0c26.png,train,haiti,18.193417163431207,-73.75178266299767,AmorphousConcrete,Haiti,North America,,,Flat,5.040734649889064,False,False,"flat flat concrete / cement roof in Haiti, 5 ft² footprint",Q2-2025
Haiti-hurricane-matthew_00000152_pre_disaster_84642b9b-6d6f-494d-8f64-2df192575a57.png,train,haiti,18.19426987338712,-73.75314000428118,AmorphousConcrete,Haiti,North America,,,Flat,7.70574776724899,False,False,"flat flat concrete / cement roof in Haiti, 7 ft² footprint",Q2-2025
Haiti-hurricane-matthew_00000152_pre_disaster_850ae763-11cc-4760-acda-ce01d2c3d2ec.png,train,haiti,18.193509037238183,-73.75199810141251,AmorphousConcrete,Haiti,North America,,,Flat,10.308221555833851,False,False,"flat flat concrete / cement roof in Haiti, 10 ft² footprint",Q2-2025
Haiti-hurricane-matthew_00000152_pre_disaster_85dce795-447c-4248-9f07-cbeac2f7551d.png,train,haiti,18.195072790355287,-73.74914968812149,AmorphousConcrete,Haiti,North America,,,Flat,6.226650290212461,False,False,"flat flat concrete / cement roof in Haiti, 6 ft² footprint",Q2-2025
Haiti-hurricane-matthew_00000152_pre_disaster_889b64f2-8c99-4569-b89b-8e510af6a590.png,train,haiti,18.194624964451673,-73.75101391519439,MetalSheetMaterials,Haiti,North America,,,,5.216760024642859,False,False,"corrugated or tiled metal roof (silver / dark / painted) in Haiti, 5 ft² footprint",Q2-2025
Haiti-hurricane-matthew_00000152_pre_disaster_8b304d61-4929-4fcc-a235-9cafb7f1757e.png,train,haiti,18.19563094022095,-73.75269957159028,MetalSheetMaterials,Haiti,North America,,,,7.437018479344239,False,True,"corrugated or tiled metal roof (silver / dark / painted) in Haiti, multiple materials detected, 7 ft² footprint",Q2-2025
Haiti-hurricane-matthew_00000152_pre_disaster_8dc32597-17b1-45db-9d8e-1d1bd10e4c39.png,train,haiti,18.19408480387007,-73.75104892440955,AmorphousConcrete,Haiti,North America,,,Flat,4.5058110075583135,False,False,"flat flat concrete / cement roof in Haiti, 4 ft² footprint",Q2-2025
Haiti-hurricane-matthew_00000152_pre_disaster_9340fe4f-cea6-41c2-82c3-070dbeecbeaa.png,train,haiti,18.19550225310429,-73.7519935499957,MetalSheetMaterials,Haiti,North America,,,,12.255053144193989,False,False,"corrugated or tiled metal roof (silver / dark / painted) in Haiti, 12 ft² footprint",Q2-2025
Haiti-hurricane-matthew_00000152_pre_disaster_9461dc56-cdb4-4d17-be23-08f85d0f1b5b.png,train,haiti,18.195739363449903,-73.74918430263394,AmorphousConcrete,Haiti,North America,,,Flat,11.559094297396411,False,False,"flat flat concrete / cement roof in Haiti, 11 ft² footprint",Q2-2025
Haiti-hurricane-matthew_00000152_pre_disaster_95201aa1-c48f-4cfe-ae1d-77503553e712.png,train,haiti,18.195075114432974,-73.75232778471076,MetalSheetMaterials,Haiti,North America,,,,6.177012323932178,False,False,"corrugated or tiled metal roof (silver / dark / painted) in Haiti, 6 ft² footprint",Q2-2025
Haiti-hurricane-matthew_00000152_pre_disaster_98cc802a-d77c-4304-afaa-edbe620eadd0.png,train,haiti,18.19578493550394,-73.75181972382262,MetalSheetMaterials,Haiti,North America,,,,7.433149188470195,False,False,"corrugated or tiled metal roof (silver / dark / painted) in Haiti, 7 ft² footprint",Q2-2025
Haiti-hurricane-matthew_00000152_pre_disaster_a035551e-f821-46bc-af7c-31857295b382.png,train,haiti,18.19449437592461,-73.75039283905137,AmorphousConcrete,Haiti,North America,,,Flat,7.588277197344805,False,False,"flat flat concrete / cement roof in Haiti, 7 ft² footprint",Q2-2025
Haiti-hurricane-matthew_00000152_pre_disaster_a1f031c1-8e72-45bd-8ecc-0358eaf223e0.png,train,haiti,18.19537251024436,-73.75024455622308,MetalSheetMaterials,Haiti,North America,,,,9.272109828567732,False,False,"corrugated or tiled metal roof (silver / dark / painted) in Haiti, 9 ft² footprint",Q2-2025
Haiti-hurricane-matthew_00000152_pre_disaster_a353188c-c8ed-4c84-b985-ea7a79963e5b.png,train,haiti,18.19527478956521,-73.74920597217775,MetalSheetMaterials,Haiti,North America,,,,6.054723460700459,False,False,"corrugated or tiled metal roof (silver / dark / painted) in Haiti, 6 ft² footprint",Q2-2025
Haiti-hurricane-matthew_00000152_pre_disaster_a72df735-133a-4364-b874-a9acc287d3d1.png,train,haiti,18.19438332015605,-73.75209735088384,AmorphousConcrete,Haiti,North America,,,Flat,6.77082650066014,False,False,"flat flat concrete / cement roof in Haiti, 6 ft² footprint",Q2-2025
Haiti-hurricane-matthew_00000152_pre_disaster_a81edfa6-f4d2-48dc-9252-5bf10d20cdc2.png,train,haiti,18.194917671082592,-73.75126043330016,MetalSheetMaterials,Haiti,North America,,,,5.439043377867715,False,False,"corrugated or tiled metal roof (silver / dark / painted) in Haiti, 5 ft² footprint",Q2-2025
Haiti-hurricane-matthew_00000152_pre_disaster_a8581304-4bc8-498c-ba5f-fb65ec6a6134.png,train,haiti,18.194560883548434,-73.75148513986171,MetalSheetMaterials,Haiti,North America,,,,7.946553053558786,False,False,"corrugated or tiled metal roof (silver / dark / painted) in Haiti, 7 ft² footprint",Q2-2025
Haiti-hurricane-matthew_00000152_pre_disaster_a9c77280-6c92-4f5a-ba00-2061602bc2a9.png,train,haiti,18.195663614896752,-73.75063124073752,MetalSheetMaterials,Haiti,North America,,,,9.378801362843484,False,False,"corrugated or tiled metal roof (silver / dark / painted) in Haiti, 9 ft² footprint",Q2-2025
Haiti-hurricane-matthew_00000152_pre_disaster_ab2e141f-70c4-4d44-9ad8-3305ffee1b71.png,train,haiti,18.19521047058545,-73.7514273848908,MetalSheetMaterials,Haiti,North America,,,,4.5145794552418606,False,False,"corrugated or tiled metal roof (silver / dark / painted) in Haiti, 4 ft² footprint",Q2-2025
Haiti-hurricane-matthew_00000152_pre_disaster_b0666bfc-ac25-453e-b995-861e9a9d5409.png,train,haiti,18.194134390638904,-73.75201323247028,MetalSheetMaterials,Haiti,North America,,,,4.013877569954177,False,False,"corrugated or tiled metal roof (silver / dark / painted) in Haiti, 4 ft² footprint",Q2-2025
Haiti-hurricane-matthew_00000152_pre_disaster_b07debe5-8b57-49e2-9f78-86300815d7e1.png,train,haiti,18.194269040814543,-73.75213060609913,MetalSheetMaterials,Haiti,North America,,,,4.7234974869309,False,False,"corrugated or tiled metal roof (silver / dark / painted) in Haiti, 4 ft² footprint",Q2-2025
Haiti-hurricane-matthew_00000152_pre_disaster_b1ac415c-2386-408a-a162-83f17b13ba91.png,train,haiti,18.195444513674733,-73.75180899620572,AmorphousConcrete,Haiti,North America,,,Flat,7.654719184485226,False,False,"flat flat concrete / cement roof in Haiti, 7 ft² footprint",Q2-2025
Haiti-hurricane-matthew_00000152_pre_disaster_b1ad040d-9d1f-4b4d-8cea-c848166c3782.png,train,haiti,18.195836341381906,-73.75004001812249,MetalSheetMaterials,Haiti,North America,,,,6.967096285389734,False,False,"corrugated or tiled metal roof (silver / dark / painted) in Haiti, 6 ft² footprint",Q2-2025
Haiti-hurricane-matthew_00000152_pre_disaster_b846b9fa-5848-43f5-a139-9a858213fcd6.png,train,haiti,18.194132827729476,-73.75161854590334,MetalSheetMaterials,Haiti,North America,,,,8.065529713067498,False,False,"corrugated or tiled metal roof (silver / dark / painted) in Haiti, 8 ft² footprint",Q2-2025
Haiti-hurricane-matthew_00000152_pre_disaster_b8cd1a46-2f9e-4193-a753-834c6e6363de.png,train,haiti,18.19528099615566,-73.75130558968986,MetalSheetMaterials,Haiti,North America,,,,4.014717510494885,False,True,"corrugated or tiled metal roof (silver / dark / painted) in Haiti, multiple materials detected, 4 ft² footprint",Q2-2025
Haiti-hurricane-matthew_00000152_pre_disaster_bcab868b-1bc6-4b55-a3d4-b8590881bb2f.png,train,haiti,18.193665742690833,-73.75064267532333,MetalSheetMaterials,Haiti,North America,,,,11.133118316831302,False,False,"corrugated or tiled metal roof (silver / dark / painted) in Haiti, 11 ft² footprint",Q2-2025
Haiti-hurricane-matthew_00000152_pre_disaster_bf017c51-59a1-45fe-a146-9f71777e722f.png,train,haiti,18.195197451260103,-73.75340226781714,MetalSheetMaterials,Haiti,North America,,,,8.319073851049472,False,False,"corrugated or tiled metal roof (silver / dark / painted) in Haiti, 8 ft² footprint",Q2-2025
Haiti-hurricane-matthew_00000152_pre_disaster_c9b7894b-502f-4088-bdcf-efac7ba7dbbc.png,train,haiti,18.19560049492513,-73.74937484316425,MetalSheetMaterials,Haiti,North America,,,,6.196119251010754,False,False,"corrugated or tiled metal roof (silver / dark / painted) in Haiti, 6 ft² footprint",Q2-2025
Haiti-hurricane-matthew_00000152_pre_disaster_ca9f13ee-e9ec-4b5a-93b2-d0dc5ca5a4df.png,train,haiti,18.194539963157393,-73.75131841913947,MetalSheetMaterials,Haiti,North America,,,,6.614719523552391,False,True,"corrugated or tiled metal roof (silver / dark / painted) in Haiti, multiple materials detected, 6 ft² footprint",Q2-2025
Haiti-hurricane-matthew_00000152_pre_disaster_cbbc318e-6f17-4fad-8fd3-737d3089b49b.png,train,haiti,18.194064993529956,-73.74925998739175,MetalSheetMaterials,Haiti,North America,,,,3.997315727054782,False,True,"corrugated or tiled metal roof (silver / dark / painted) in Haiti, multiple materials detected, 3 ft² footprint",Q2-2025
Haiti-hurricane-matthew_00000152_pre_disaster_ce31e4de-e2d2-4507-a374-fe7ce2a426b6.png,train,haiti,18.195688531234712,-73.75322694820774,MetalSheetMaterials,Haiti,North America,,,,4.608187455579608,False,False,"corrugated or tiled metal roof (silver / dark / painted) in Haiti, 4 ft² footprint",Q2-2025
Haiti-hurricane-matthew_00000152_pre_disaster_d337d151-e93f-477e-a5c6-dcc5908787c8.png,train,haiti,18.1955309999573,-73.74961007510858,MetalSheetMaterials,Haiti,North America,,,,4.859890245577536,False,False,"corrugated or tiled metal roof (silver / dark / painted) in Haiti, 4 ft² footprint",Q2-2025
Haiti-hurricane-matthew_00000152_pre_disaster_d3737285-648a-457d-a67d-ab29cae51037.png,train,haiti,18.195845640862796,-73.75090821148771,MetalSheetMaterials,Haiti,North America,,,,15.267787229448098,False,False,"corrugated or tiled metal roof (silver / dark / painted) in Haiti, 15 ft² footprint",Q2-2025
Haiti-hurricane-matthew_00000152_pre_disaster_db41e298-afb2-4035-97f5-dd67bf7cfc4e.png,train,haiti,18.19387147687123,-73.75018460100223,MetalSheetMaterials,Haiti,North America,,,,5.929820204832741,False,False,"corrugated or tiled metal roof (silver / dark / painted) in Haiti, 5 ft² footprint",Q2-2025
Haiti-hurricane-matthew_00000152_pre_disaster_dd8cd61f-13a0-44f3-b675-00e94b5d25e0.png,train,haiti,18.194245087287733,-73.75199596979789,MetalSheetMaterials,Haiti,North America,,,,5.1778571653166585,False,False,"corrugated or tiled metal roof (silver / dark / painted) in Haiti, 5 ft² footprint",Q2-2025
Haiti-hurricane-matthew_00000152_pre_disaster_ec5b8df7-ec7f-4177-96d8-784da4115f52.png,train,haiti,18.194420338592423,-73.75157391934052,MetalSheetMaterials,Haiti,North America,,,,7.341199149145841,False,False,"corrugated or tiled metal roof (silver / dark / painted) in Haiti, 7 ft² footprint",Q2-2025
Haiti-hurricane-matthew_00000152_pre_disaster_edc83b51-ca92-4aec-8303-af6610b1aee6.png,train,haiti,18.195310239811597,-73.74963554564908,MetalSheetMaterials,Haiti,North America,,,,7.086056679223367,False,False,"corrugated or tiled metal roof (silver / dark / painted) in Haiti, 7 ft² footprint",Q2-2025
Haiti-hurricane-matthew_00000152_pre_disaster_f18c635e-2d16-467c-a7a3-29f52ec5bc46.png,train,haiti,18.194312997219424,-73.75170548263414,AmorphousConcrete,Haiti,North America,,,Flat,4.700310345196017,False,False,"flat flat concrete / cement roof in Haiti, 4 ft² footprint",Q2-2025
Haiti-hurricane-matthew_00000152_pre_disaster_f4a8ee3c-8efe-470a-9177-076fea6fd497.png,train,haiti,18.193547985194726,-73.74995902812657,MetalSheetMaterials,Haiti,North America,,,,12.664007959642642,False,False,"corrugated or tiled metal roof (silver / dark / painted) in Haiti, 12 ft² footprint",Q2-2025
Haiti-hurricane-matthew_00000152_pre_disaster_f4aa2ce0-6171-4f3c-9ab3-665fa8b840b1.png,train,haiti,18.194485507495944,-73.74988974883024,MetalSheetMaterials,Haiti,North America,,,,9.04009442888396,False,False,"corrugated or tiled metal roof (silver / dark / painted) in Haiti, 9 ft² footprint",Q2-2025
Haiti-hurricane-matthew_00000152_pre_disaster_fc6a718a-a11a-4426-a877-46db6fe735d3.png,train,haiti,18.194147897781495,-73.74938882950016,AmorphousConcrete,Haiti,North America,,,Flat,4.928330042001559,False,False,"flat flat concrete / cement roof in Haiti, 4 ft² footprint",Q2-2025
Haiti-hurricane-matthew_00000152_pre_disaster_ffe7e022-1f6e-43b5-a3a0-be502ecac666.png,train,haiti,18.195165535165778,-73.75018662656294,AmorphousConcrete,Haiti,North America,,,Flat,10.3852086728451,False,False,"flat flat concrete / cement roof in Haiti, 10 ft² footprint",Q2-2025
Haiti-hurricane-matthew_00000154_pre_disaster_80a10614-479f-4e79-aa98-87d773ff006f.png,train,haiti,18.58772135081478,-74.14949000653866,AmorphousConcrete,Haiti,North America,,,Flat,3.412683470470353,False,False,"flat flat concrete / cement roof in Haiti, 3 ft² footprint",Q2-2025
Haiti-hurricane-matthew_00000156_pre_disaster_02db37c4-c7b0-49c5-837c-d2293c848341.png,train,haiti,18.18871190362386,-73.75456211314075,AmorphousConcrete,Haiti,North America,,,Flat,2.4983127409573767,False,True,"flat flat concrete / cement roof in Haiti, multiple materials detected, 2 ft² footprint",Q2-2025
Haiti-hurricane-matthew_00000156_pre_disaster_0f8ad2a0-7d9f-4961-a018-27d5f3e4047d.png,train,haiti,18.18619253546982,-73.75573281986401,MetalSheetMaterials,Haiti,North America,,,,5.166497820213568,False,False,"corrugated or tiled metal roof (silver / dark / painted) in Haiti, 5 ft² footprint",Q2-2025
Haiti-hurricane-matthew_00000156_pre_disaster_15c72c99-9d51-42a2-afb9-cfd2b4ade8bd.png,train,haiti,18.188508504008897,-73.75482365744179,MetalSheetMaterials,Haiti,North America,,,,4.552418463009768,False,False,"corrugated or tiled metal roof (silver / dark / painted) in Haiti, 4 ft² footprint",Q2-2025
Haiti-hurricane-matthew_00000156_pre_disaster_1af248ba-357f-4e14-ba49-e0e38f3f3358.png,train,haiti,18.187909610592833,-73.75507982597475,MetalSheetMaterials,Haiti,North America,,,,3.4129867882916445,False,False,"corrugated or tiled metal roof (silver / dark / painted) in Haiti, 3 ft² footprint",Q2-2025
Haiti-hurricane-matthew_00000156_pre_disaster_22f5128a-592e-404c-85c3-27ee3dbf7059.png,train,haiti,18.188627364987997,-73.75361626042962,AmorphousConcrete,Haiti,North America,,,Flat,5.098694120298644,False,False,"flat flat concrete / cement roof in Haiti, 5 ft² footprint",Q2-2025
Haiti-hurricane-matthew_00000156_pre_disaster_286e9974-b47b-46c3-b5c9-c303eabf3f9c.png,train,haiti,18.18823673555739,-73.75484339028296,AmorphousConcrete,Haiti,North America,,,Flat,4.466033117451422,False,False,"flat flat concrete / cement roof in Haiti, 4 ft² footprint",Q2-2025
Haiti-hurricane-matthew_00000156_pre_disaster_2c78f21e-20c7-441a-95a5-451bad28c370.png,train,haiti,18.188555737881188,-73.75474686633366,AmorphousConcrete,Haiti,North America,,,Flat,8.18988850689182,False,True,"flat flat concrete / cement roof in Haiti, multiple materials detected, 8 ft² footprint",Q2-2025
Haiti-hurricane-matthew_00000156_pre_disaster_31a41b12-ef0b-4c16-b56c-14dcf119422f.png,train,haiti,18.187507219188575,-73.75475942523529,MetalSheetMaterials,Haiti,North America,,,,5.570229149811121,False,False,"corrugated or tiled metal roof (silver / dark / painted) in Haiti, 5 ft² footprint",Q2-2025
Haiti-hurricane-matthew_00000156_pre_disaster_3f5a67c8-9273-4fbb-a8b0-0bf7c49a66b2.png,train,haiti,18.188395985904855,-73.75435462685476,MetalSheetMaterials,Haiti,North America,,,,3.1769477207665178,False,False,"corrugated or tiled metal roof (silver / dark / painted) in Haiti, 3 ft² footprint",Q2-2025
Haiti-hurricane-matthew_00000156_pre_disaster_4480842b-0317-48f2-b88b-e9ad16037817.png,train,haiti,18.18740575826296,-73.7538666035543,MetalSheetMaterials,Haiti,North America,,,,11.21700385647244,False,False,"corrugated or tiled metal roof (silver / dark / painted) in Haiti, 11 ft² footprint",Q2-2025
Haiti-hurricane-matthew_00000156_pre_disaster_56f95538-ff06-45f2-88ed-268d221f58e9.png,train,haiti,18.18476512136769,-73.7543791521012,AmorphousConcrete,Haiti,North America,,,Flat,2.853273479235069,False,False,"flat flat concrete / cement roof in Haiti, 2 ft² footprint",Q2-2025
Haiti-hurricane-matthew_00000156_pre_disaster_58fa2759-6ed0-45c1-aa2c-debf23707752.png,train,haiti,18.18823427161186,-73.75416194640329,AmorphousConcrete,Haiti,North America,,,Flat,6.59487513339848,False,False,"flat flat concrete / cement roof in Haiti, 6 ft² footprint",Q2-2025
Haiti-hurricane-matthew_00000156_pre_disaster_5d7d611a-74ca-458a-8073-6c125d6bcd1c.png,train,haiti,18.187495377119426,-73.75402603344348,AmorphousConcrete,Haiti,North America,,,Flat,5.160752455772911,False,False,"flat flat concrete / cement roof in Haiti, 5 ft² footprint",Q2-2025
Haiti-hurricane-matthew_00000156_pre_disaster_6436311b-8a70-41b1-808f-62fede08e5b4.png,train,haiti,18.18837726075893,-73.75517191627658,AmorphousConcrete,Haiti,North America,,,Flat,4.560417401006875,False,False,"flat flat concrete / cement roof in Haiti, 4 ft² footprint",Q2-2025
Haiti-hurricane-matthew_00000156_pre_disaster_64fb0a1d-a0fe-430b-b467-366bed08882e.png,train,haiti,18.187214426446793,-73.75501072600535,MetalSheetMaterials,Haiti,North America,,,,7.689587006674517,False,False,"corrugated or tiled metal roof (silver / dark / painted) in Haiti, 7 ft² footprint",Q2-2025
Haiti-hurricane-matthew_00000156_pre_disaster_71b28258-dc03-4da2-aef9-f571ec8209bb.png,train,haiti,18.188592884807765,-73.75430321115728,AmorphousConcrete,Haiti,North America,,,Flat,3.508565811213044,False,False,"flat flat concrete / cement roof in Haiti, 3 ft² footprint",Q2-2025
Haiti-hurricane-matthew_00000156_pre_disaster_7c72cbc4-e8af-4f8a-865d-be0a6b6aad44.png,train,haiti,18.18818931770215,-73.75522719596162,AmorphousConcrete,Haiti,North America,,,Flat,2.837001389343801,False,False,"flat flat concrete / cement roof in Haiti, 2 ft² footprint",Q2-2025
Haiti-hurricane-matthew_00000156_pre_disaster_846dd51e-992a-4504-af6f-48866ab8591b.png,train,haiti,18.186985202896825,-73.75498530568349,MetalSheetMaterials,Haiti,North America,,,,5.791330840380427,False,True,"corrugated or tiled metal roof (silver / dark / painted) in Haiti, multiple materials detected, 5 ft² footprint",Q2-2025
Haiti-hurricane-matthew_00000156_pre_disaster_859cd542-9395-4323-a977-19f6d8e7ffe7.png,train,haiti,18.186527645839416,-73.75560350821816,MetalSheetMaterials,Haiti,North America,,,,5.605071321537737,False,False,"corrugated or tiled metal roof (silver / dark / painted) in Haiti, 5 ft² footprint",Q2-2025
Haiti-hurricane-matthew_00000156_pre_disaster_87a1087b-497c-4b95-bad9-9fce3aa6fd6f.png,train,haiti,18.18846440493403,-73.75428756837826,AmorphousConcrete,Haiti,North America,,,Flat,3.469977209434697,False,True,"flat flat concrete / cement roof in Haiti, multiple materials detected, 3 ft² footprint",Q2-2025
Haiti-hurricane-matthew_00000156_pre_disaster_8ac8af46-bc8d-402d-a682-33741baf197d.png,train,haiti,18.188021483272145,-73.75592808063627,AmorphousConcrete,Haiti,North America,,,Flat,5.609710859348297,False,True,"flat flat concrete / cement roof in Haiti, multiple materials detected, 5 ft² footprint",Q2-2025
Haiti-hurricane-matthew_00000156_pre_disaster_94b92217-8895-4216-9c64-0cb6214273da.png,train,haiti,18.187996414455867,-73.75512587274534,AmorphousConcrete,Haiti,North America,,,Flat,3.9544133405390913,False,True,"flat flat concrete / cement roof in Haiti, multiple materials detected, 3 ft² footprint",Q2-2025
Haiti-hurricane-matthew_00000156_pre_disaster_a3b9e15e-658f-4d97-9080-cb72817e9dec.png,train,haiti,18.187518221467613,-73.75408750659778,MetalSheetMaterials,Haiti,North America,,,,2.2591329875038144,False,False,"corrugated or tiled metal roof (silver / dark / painted) in Haiti, 2 ft² footprint",Q2-2025
Haiti-hurricane-matthew_00000156_pre_disaster_a4ee94d2-d301-46f8-88ca-89a3db18c7b5.png,train,haiti,18.188876991671012,-73.75567251590088,MetalSheetMaterials,Haiti,North America,,,,4.442009477147687,False,False,"corrugated or tiled metal roof (silver / dark / painted) in Haiti, 4 ft² footprint",Q2-2025
Haiti-hurricane-matthew_00000156_pre_disaster_a53bc03c-d7eb-4d5b-b32e-0f92dbee892b.png,train,haiti,18.188021077026445,-73.75412205781087,AmorphousConcrete,Haiti,North America,,,Flat,7.037741499827298,False,False,"flat flat concrete / cement roof in Haiti, 7 ft² footprint",Q2-2025
Haiti-hurricane-matthew_00000156_pre_disaster_c1f85523-5161-472f-8d49-680c147dcba8.png,train,haiti,18.188665186299453,-73.75432233183179,AmorphousConcrete,Haiti,North America,,,Flat,3.6044911031919367,False,False,"flat flat concrete / cement roof in Haiti, 3 ft² footprint",Q2-2025
Haiti-hurricane-matthew_00000156_pre_disaster_d543d6dc-2d93-4531-9662-b930c930e96b.png,train,haiti,18.186330840274113,-73.75459324619679,MetalSheetMaterials,Haiti,North America,,,,3.263358593813257,False,False,"corrugated or tiled metal roof (silver / dark / painted) in Haiti, 3 ft² footprint",Q2-2025
Haiti-hurricane-matthew_00000156_pre_disaster_dfdd8225-7c55-4fb7-b563-5911fe1572b7.png,train,haiti,18.188223506388304,-73.75537077330434,MetalSheetMaterials,Haiti,North America,,,,5.639103090030097,False,False,"corrugated or tiled metal roof (silver / dark / painted) in Haiti, 5 ft² footprint",Q2-2025
Haiti-hurricane-matthew_00000158_pre_disaster_0b594c27-06be-459a-98de-5b296a2484b7.png,train,haiti,18.194043882080692,-73.74841789019493,MetalSheetMaterials,Haiti,North America,,,,12.849104860154744,False,False,"corrugated or tiled metal roof (silver / dark / painted) in Haiti, 12 ft² footprint",Q2-2025
Haiti-hurricane-matthew_00000158_pre_disaster_0bb9ae4f-81b2-4a65-beea-0c8117cd59e6.png,train,haiti,18.19466033196767,-73.74642466005525,AmorphousConcrete,Haiti,North America,,,Flat,7.142763702848298,False,False,"flat flat concrete / cement roof in Haiti, 7 ft² footprint",Q2-2025
Haiti-hurricane-matthew_00000158_pre_disaster_0bde07cf-371b-4e59-a7ce-392f752691de.png,train,haiti,18.19558551297765,-73.74490404386903,MetalSheetMaterials,Haiti,North America,,,,7.148157204420096,False,False,"corrugated or tiled metal roof (silver / dark / painted) in Haiti, 7 ft² footprint",Q2-2025
Haiti-hurricane-matthew_00000158_pre_disaster_2a569100-aa89-4bd2-be1f-2bb6bf3f2e33.png,train,haiti,18.194935580619234,-73.7460799121362,MetalSheetMaterials,Haiti,North America,,,,6.605280254409512,False,False,"corrugated or tiled metal roof (silver / dark / painted) in Haiti, 6 ft² footprint",Q2-2025
Haiti-hurricane-matthew_00000158_pre_disaster_2a6ed1d9-fa2f-4b85-9c7c-a5f684bc70d7.png,train,haiti,18.19532452970884,-73.74755335745701,MetalSheetMaterials,Haiti,North America,,,,10.273751803437436,False,False,"corrugated or tiled metal roof (silver / dark / painted) in Haiti, 10 ft² footprint",Q2-2025
Haiti-hurricane-matthew_00000158_pre_disaster_3b179e0a-b0d9-4163-bd40-be407ac0afff.png,train,haiti,18.194440471601663,-73.74770798705761,MetalSheetMaterials,Haiti,North America,,,,4.758640235762103,False,False,"corrugated or tiled metal roof (silver / dark / painted) in Haiti, 4 ft² footprint",Q2-2025
Haiti-hurricane-matthew_00000158_pre_disaster_4b5b8174-6635-427d-b0b4-e0c4bd9035cc.png,train,haiti,18.195731919916472,-73.74595177202906,MetalSheetMaterials,Haiti,North America,,,,5.939166853356208,False,True,"corrugated or tiled metal roof (silver / dark / painted) in Haiti, multiple materials detected, 5 ft² footprint",Q2-2025
Haiti-hurricane-matthew_00000158_pre_disaster_4bf0d9cd-87ed-431e-92f1-a11bc4e42250.png,train,haiti,18.194667978901272,-73.74742878482341,AmorphousConcrete,Haiti,North America,,,Flat,13.41546264823177,False,False,"flat flat concrete / cement roof in Haiti, 13 ft² footprint",Q2-2025
Haiti-hurricane-matthew_00000198_pre_disaster_b2a59d91-66bb-4c90-be06-2185874b7909.png,train,haiti,18.569307438824087,-74.13220399497243,MetalSheetMaterials,Haiti,North America,,,,3.0053362731871864,False,False,"corrugated or tiled metal roof (silver / dark / painted) in Haiti, 3 ft² footprint",Q2-2025
Haiti-hurricane-matthew_00000260_pre_disaster_d4bfbd7f-b65b-4299-b8ca-c005f4164479.png,train,haiti,18.65741431890973,-74.13327977411902,MetalSheetMaterials,Haiti,North America,,,,6.1330253843722105,False,False,"corrugated or tiled metal roof (silver / dark / painted) in Haiti, 6 ft² footprint",Q2-2025
Haiti-hurricane-matthew_00000278_pre_disaster_35d7ce38-cdc9-4239-83c3-d11c0882d6ef.png,train,haiti,18.655471073771533,-74.12964358501397,MetalSheetMaterials,Haiti,North America,,,,6.140270711752931,False,False,"corrugated or tiled metal roof (silver / dark / painted) in Haiti, 6 ft² footprint",Q2-2025
Haiti-hurricane-matthew_00000278_pre_disaster_381c9125-1533-41a5-81bd-54b8149d8039.png,train,haiti,18.65710122327056,-74.13258151065031,AmorphousConcrete,Haiti,North America,,,Flat,4.153401380526332,False,False,"flat flat concrete / cement roof in Haiti, 4 ft² footprint",Q2-2025
Haiti-hurricane-matthew_00000278_pre_disaster_50dc322c-8db1-429f-9167-423789a3b3a2.png,train,haiti,18.65791288186309,-74.13269289272355,AmorphousConcrete,Haiti,North America,,,Flat,3.7484877513756967,False,False,"flat flat concrete / cement roof in Haiti, 3 ft² footprint",Q2-2025
Haiti-hurricane-matthew_00000278_pre_disaster_5764e502-6339-44d4-9ba3-963bffb6784f.png,train,haiti,18.655013780202115,-74.13011564429544,AmorphousMembrane,Haiti,North America,,,Flat,4.376856113992636,False,False,"flat membrane roof (bright EPDM / TPO) in Haiti, 4 ft² footprint",Q2-2025
Haiti-hurricane-matthew_00000278_pre_disaster_795ae88e-92c1-4836-a3cc-31a182cdc150.png,train,haiti,18.654312522600623,-74.12871726988425,AmorphousConcrete,Haiti,North America,,,Flat,12.812724605825853,False,False,"flat flat concrete / cement roof in Haiti, 12 ft² footprint",Q2-2025
Haiti-hurricane-matthew_00000278_pre_disaster_96b5bd46-5d55-4cba-98ee-1280c24251cc.png,train,haiti,18.654018328761563,-74.1297514958621,AmorphousConcrete,Haiti,North America,,,Flat,23.23365859446936,False,True,"flat flat concrete / cement roof in Haiti, multiple materials detected, 23 ft² footprint",Q2-2025
Haiti-hurricane-matthew_00000278_pre_disaster_cb7891ce-3211-44d3-9701-ed2a8e925217.png,train,haiti,18.656325931008737,-74.13236861426438,AmorphousConcrete,Haiti,North America,,,Flat,7.162009716498936,False,False,"flat flat concrete / cement roof in Haiti, 7 ft² footprint",Q2-2025
Haiti-hurricane-matthew_00000296_pre_disaster_b8daafce-b778-4ff1-9c15-b8f98bfdf79c.png,train,haiti,18.637731687146925,-74.12248773953067,MetalSheetMaterials,Haiti,North America,,,,4.249573547941274,False,False,"corrugated or tiled metal roof (silver / dark / painted) in Haiti, 4 ft² footprint",Q2-2025
Haiti-hurricane-matthew_00000302_pre_disaster_00e3406f-5be1-4c8c-ab0e-cac5a705a022.png,train,haiti,18.26306803516035,-73.54609918467142,MetalSheetMaterials,Haiti,North America,,,,11.653200565727191,False,False,"corrugated or tiled metal roof (silver / dark / painted) in Haiti, 11 ft² footprint",Q2-2025
Haiti-hurricane-matthew_00000302_pre_disaster_1f525d56-fbf7-4970-85a7-3d92a3ffa41e.png,train,haiti,18.261370618895043,-73.54760676702136,MetalSheetMaterials,Haiti,North America,,,,4.132533872189873,False,False,"corrugated or tiled metal roof (silver / dark / painted) in Haiti, 4 ft² footprint",Q2-2025
Haiti-hurricane-matthew_00000302_pre_disaster_30cea963-50fe-4d82-9174-cd161ad7843f.png,train,haiti,18.262735029796353,-73.5465293093026,MetalSheetMaterials,Haiti,North America,,,,6.748611446109953,False,True,"corrugated or tiled metal roof (silver / dark / painted) in Haiti, multiple materials detected, 6 ft² footprint",Q2-2025
Haiti-hurricane-matthew_00000302_pre_disaster_34284138-e370-43f6-adc8-4326365e4ebd.png,train,haiti,18.26196326432464,-73.54798585711707,MetalSheetMaterials,Haiti,North America,,,,6.667502608121858,False,True,"corrugated or tiled metal roof (silver / dark / painted) in Haiti, multiple materials detected, 6 ft² footprint",Q2-2025
Haiti-hurricane-matthew_00000302_pre_disaster_38e2ccfc-0932-4e4f-bdad-9e241ea35177.png,train,haiti,18.263296627159132,-73.54665464945133,MetalSheetMaterials,Haiti,North America,,,,4.6763148668052965,False,True,"corrugated or tiled metal roof (silver / dark / painted) in Haiti, multiple materials detected, 4 ft² footprint",Q2-2025
Haiti-hurricane-matthew_00000302_pre_disaster_6f1ce6aa-4a22-456c-89df-476f0e255cec.png,train,haiti,18.26158436984718,-73.54781838024503,MetalSheetMaterials,Haiti,North America,,,,3.044013995897497,False,True,"corrugated or tiled metal roof (silver / dark / painted) in Haiti, multiple materials detected, 3 ft² footprint",Q2-2025
Haiti-hurricane-matthew_00000302_pre_disaster_9cc6cf6e-3d43-4fa8-b1dd-11d96c41e55f.png,train,haiti,18.26247512381022,-73.5473929925037,MetalSheetMaterials,Haiti,North America,,,,6.401958077967602,False,False,"corrugated or tiled metal roof (silver / dark / painted) in Haiti, 6 ft² footprint",Q2-2025
Haiti-hurricane-matthew_00000302_pre_disaster_a7463128-0ac6-4e39-9f80-3c241c26f961.png,train,haiti,18.26175863196942,-73.54726232946103,MetalSheetMaterials,Haiti,North America,,,,7.077641400917818,False,False,"corrugated or tiled metal roof (silver / dark / painted) in Haiti, 7 ft² footprint",Q2-2025
Haiti-hurricane-matthew_00000302_pre_disaster_a7ddcf65-06ad-4f88-bcdf-3983f759e91b.png,train,haiti,18.26230432826945,-73.54597465841634,MetalSheetMaterials,Haiti,North America,,,,5.065553308544493,False,False,"corrugated or tiled metal roof (silver / dark / painted) in Haiti, 5 ft² footprint",Q2-2025
Haiti-hurricane-matthew_00000302_pre_disaster_e35215fd-3985-40b6-91d6-0e2c84fe71ae.png,train,haiti,18.26304388537656,-73.54647524951739,MetalSheetMaterials,Haiti,North America,,,,13.837416369054328,False,False,"corrugated or tiled metal roof (silver / dark / painted) in Haiti, 13 ft² footprint",Q2-2025
Haiti-hurricane-matthew_00000302_pre_disaster_f7348131-6c54-4c5a-a582-485850212e74.png,train,haiti,18.26308851832483,-73.55027568035302,MetalSheetMaterials,Haiti,North America,,,,7.057162900265194,False,False,"corrugated or tiled metal roof (silver / dark / painted) in Haiti, 7 ft² footprint",Q2-2025
Haiti-hurricane-matthew_00000302_pre_disaster_fc39f494-5a61-40b6-bb46-f08f2c469c5f.png,train,haiti,18.261560634249236,-73.54633238681352,MetalSheetMaterials,Haiti,North America,,,,4.193359231396157,False,False,"corrugated or tiled metal roof (silver / dark / painted) in Haiti, 4 ft² footprint",Q2-2025
Haiti-hurricane-matthew_00000306_pre_disaster_07c37425-1281-4b0a-b42e-3db1aaddc13e.png,train,haiti,18.263635823269286,-73.54539005341385,MetalSheetMaterials,Haiti,North America,,,,3.1844868305539444,False,False,"corrugated or tiled metal roof (silver / dark / painted) in Haiti, 3 ft² footprint",Q2-2025
Haiti-hurricane-matthew_00000306_pre_disaster_1b78eb66-e193-4c7d-a953-df92dddc5e34.png,train,haiti,18.26264045889651,-73.54446643276795,MetalSheetMaterials,Haiti,North America,,,,6.777458813272852,False,False,"corrugated or tiled metal roof (silver / dark / painted) in Haiti, 6 ft² footprint",Q2-2025
Haiti-hurricane-matthew_00000311_pre_disaster_98a4619c-ebfe-4989-ba13-5d995c46cc88.png,train,haiti,18.270233413361012,-73.53566341780267,MetalSheetMaterials,Haiti,North America,,,,3.263849821796306,False,False,"corrugated or tiled metal roof (silver / dark / painted) in Haiti, 3 ft² footprint",Q2-2025
Haiti-hurricane-matthew_00000311_pre_disaster_9dbc8648-d443-47ba-b354-ce32b2b663a3.png,train,haiti,18.268520065423612,-73.53483371524631,MetalSheetMaterials,Haiti,North America,,,,9.857032765406045,False,False,"corrugated or tiled metal roof (silver / dark / painted) in Haiti, 9 ft² footprint",Q2-2025
Haiti-hurricane-matthew_00000311_pre_disaster_d1878d03-36d7-4347-b6e0-b4222111e4bd.png,train,haiti,18.271025155407095,-73.53503071462843,AmorphousConcrete,Haiti,North America,,,Flat,6.200199728002735,False,False,"flat flat concrete / cement roof in Haiti, 6 ft² footprint",Q2-2025
Haiti-hurricane-matthew_00000338_pre_disaster_3bde71e1-6944-4df4-a686-5400e6b25c83.png,train,haiti,18.643528632136125,-74.12617439211347,MetalSheetMaterials,Haiti,North America,,,,7.2774047633373105,False,False,"corrugated or tiled metal roof (silver / dark / painted) in Haiti, 7 ft² footprint",Q2-2025
Haiti-hurricane-matthew_00000338_pre_disaster_73eb7d16-8b82-46eb-9342-b41bc0359c39.png,train,haiti,18.64319297267275,-74.12522856827516,MetalSheetMaterials,Haiti,North America,,,,11.667502728672735,False,False,"corrugated or tiled metal roof (silver / dark / painted) in Haiti, 11 ft² footprint",Q2-2025
Haiti-hurricane-matthew_00000346_pre_disaster_e5940c5e-a71d-4a95-90f6-ea1bccd0f131.png,train,haiti,18.634545979225155,-74.1163074814149,MetalSheetMaterials,Haiti,North America,,,,5.212650153853073,False,False,"corrugated or tiled metal roof (silver / dark / painted) in Haiti, 5 ft² footprint",Q2-2025
Haiti-hurricane-matthew_00000346_pre_disaster_f77344b5-7651-45f5-a55b-dc446b1f0758.png,train,haiti,18.634511248826612,-74.11624519454182,MetalSheetMaterials,Haiti,North America,,,,3.944137173723596,False,True,"corrugated or tiled metal roof (silver / dark / painted) in Haiti, multiple materials detected, 3 ft² footprint",Q2-2025
Haiti-hurricane-matthew_00000355_pre_disaster_c6d1bd41-03ee-4f62-bd04-009aade69125.png,train,haiti,18.65188188910762,-74.1306131900424,AmorphousConcrete,Haiti,North America,,,Flat,7.32439603975166,False,False,"flat flat concrete / cement roof in Haiti, 7 ft² footprint",Q2-2025
Haiti-hurricane-matthew_00000355_pre_disaster_e1b73324-2fde-4669-ab53-040e1dd10220.png,train,haiti,18.652716491273136,-74.12924262951445,AmorphousConcrete,Haiti,North America,,,Flat,2.569878157380098,False,False,"flat flat concrete / cement roof in Haiti, 2 ft² footprint",Q2-2025
Haiti-hurricane-matthew_00000355_pre_disaster_f87c0072-f4f2-48f7-bf05-7dc71590dc34.png,train,haiti,18.65226715753819,-74.12916387484844,AmorphousConcrete,Haiti,North America,,,Flat,3.827117385498336,False,False,"flat flat concrete / cement roof in Haiti, 3 ft² footprint",Q2-2025
Haiti-hurricane-matthew_00000355_pre_disaster_f8c19301-0e61-4d67-9f2e-018e2cc001b3.png,train,haiti,18.65203032939695,-74.1286968972779,MetalSheetMaterials,Haiti,North America,,,,7.201503213337901,False,False,"corrugated or tiled metal roof (silver / dark / painted) in Haiti, 7 ft² footprint",Q2-2025
Haiti-hurricane-matthew_00000355_pre_disaster_f99a8104-d78a-48c6-ac36-ed43c0f9e9cf.png,train,haiti,18.653047649143794,-74.12860328118806,Unknown,Haiti,North America,,,,3.044182098345949,False,False,"unknown roofing material in Haiti, 3 ft² footprint",Q2-2025
Haiti-hurricane-matthew_00000360_pre_disaster_1e98b1d4-ebe9-421c-b778-c24107672e22.png,train,haiti,18.264084412860544,-73.5458378795783,MetalSheetMaterials,Haiti,North America,,,,13.356046607509285,False,True,"corrugated or tiled metal roof (silver / dark / painted) in Haiti, multiple materials detected, 13 ft² footprint",Q2-2025
Haiti-hurricane-matthew_00000360_pre_disaster_2855e350-4505-477e-aa40-415eab3468ec.png,train,haiti,18.265059922449808,-73.54662305976605,MetalSheetMaterials,Haiti,North America,,,,1.5265493201284397,False,False,"corrugated or tiled metal roof (silver / dark / painted) in Haiti, 1 ft² footprint",Q2-2025
Haiti-hurricane-matthew_00000360_pre_disaster_65f38042-3d9b-4659-bc3f-4ab95d5a08ed.png,train,haiti,18.2663865988523,-73.54991743676828,AmorphousConcrete,Haiti,North America,,,Flat,7.090050943074355,False,False,"flat flat concrete / cement roof in Haiti, 7 ft² footprint",Q2-2025
Haiti-hurricane-matthew_00000360_pre_disaster_83d344a1-360d-4858-8655-096523ffd317.png,train,haiti,18.26500931780399,-73.54670249362775,MetalSheetMaterials,Haiti,North America,,,,4.66773335352829,False,False,"corrugated or tiled metal roof (silver / dark / painted) in Haiti, 4 ft² footprint",Q2-2025
Haiti-hurricane-matthew_00000360_pre_disaster_de5e6695-a2c5-4ad1-923f-754735f145a8.png,train,haiti,18.264093160524432,-73.54603051149661,MetalSheetMaterials,Haiti,North America,,,,3.102164396609287,False,True,"corrugated or tiled metal roof (silver / dark / painted) in Haiti, multiple materials detected, 3 ft² footprint",Q2-2025
Haiti-hurricane-matthew_00000360_pre_disaster_e3816dae-9518-44ca-af54-9d0cc23a396d.png,train,haiti,18.26440579206869,-73.54626590620227,MetalSheetMaterials,Haiti,North America,,,,3.073756800877395,False,False,"corrugated or tiled metal roof (silver / dark / painted) in Haiti, 3 ft² footprint",Q2-2025
Haiti-hurricane-matthew_00000360_pre_disaster_e38524e5-d076-4179-a79e-56375cd6b2d3.png,train,haiti,18.264487301366373,-73.54696578324034,MetalSheetMaterials,Haiti,North America,,,,5.924000008023604,False,False,"corrugated or tiled metal roof (silver / dark / painted) in Haiti, 5 ft² footprint",Q2-2025
Haiti-hurricane-matthew_00000364_pre_disaster_0315b6c0-b01e-4f8b-8b2b-c6b338ac0629.png,train,haiti,18.266372172805323,-73.54344928861511,MetalSheetMaterials,Haiti,North America,,,,17.72953553856257,False,False,"corrugated or tiled metal roof (silver / dark / painted) in Haiti, 17 ft² footprint",Q2-2025
Haiti-hurricane-matthew_00000364_pre_disaster_20a5ecdb-62ab-4f6f-b695-4ba0db51e7c1.png,train,haiti,18.26561818440005,-73.54272782666584,AmorphousMembrane,Haiti,North America,,,Flat,9.674781939595617,False,False,"flat membrane roof (bright EPDM / TPO) in Haiti, 9 ft² footprint",Q2-2025
Haiti-hurricane-matthew_00000364_pre_disaster_2d2144fc-8a86-49f6-a4da-a1080b53c5d0.png,train,haiti,18.26490544968682,-73.54215845354982,AmorphousConcrete,Haiti,North America,,,Flat,11.226404466566104,False,False,"flat flat concrete / cement roof in Haiti, 11 ft² footprint",Q2-2025
Haiti-hurricane-matthew_00000364_pre_disaster_37f656f5-5081-4b19-aaf6-5019dc1ec6e2.png,train,haiti,18.264074971824968,-73.54133634988888,Unknown,Haiti,North America,,,,3.756036239221852,False,False,"unknown roofing material in Haiti, 3 ft² footprint",Q2-2025
Haiti-hurricane-matthew_00000364_pre_disaster_790adb4a-e3af-49db-a11a-61f449b736f7.png,train,haiti,18.265509666131617,-73.5430893341865,AmorphousMembrane,Haiti,North America,,,Flat,9.175343784522838,False,False,"flat membrane roof (bright EPDM / TPO) in Haiti, 9 ft² footprint",Q2-2025
Haiti-hurricane-matthew_00000364_pre_disaster_7e038077-48ab-41ea-bf61-55d321429391.png,train,haiti,18.264769152198426,-73.54538242254264,MetalSheetMaterials,Haiti,North America,,,,8.645144564040583,False,False,"corrugated or tiled metal roof (silver / dark / painted) in Haiti, 8 ft² footprint",Q2-2025
Haiti-hurricane-matthew_00000364_pre_disaster_d3c3fc92-3d66-4b04-b597-a1ecd78bcd23.png,train,haiti,18.264698136718383,-73.54222909161325,GreenVegetative,Haiti,North America,,,,29.18214820157174,False,False,"roof with vegetation on it in Haiti, 29 ft² footprint",Q2-2025
Haiti-hurricane-matthew_00000364_pre_disaster_e1a39457-dc94-47c8-8883-38398c9166d2.png,train,haiti,18.264333919785543,-73.54282182678858,MetalSheetMaterials,Haiti,North America,,,,17.088589796032224,False,False,"corrugated or tiled metal roof (silver / dark / painted) in Haiti, 17 ft² footprint",Q2-2025
Haiti-hurricane-matthew_00000367_pre_disaster_004481a6-7d12-4d17-8c4a-c756505d501a.png,train,haiti,18.26791839121116,-73.54053639141232,MetalSheetMaterials,Haiti,North America,,,,4.497588546309222,False,False,"corrugated or tiled metal roof (silver / dark / painted) in Haiti, 4 ft² footprint",Q2-2025
Haiti-hurricane-matthew_00000367_pre_disaster_1c4cf5e8-c152-4b79-b97c-b73ec70c46f2.png,train,haiti,18.26458978304988,-73.54082538409298,MetalSheetMaterials,Haiti,North America,,,,4.299188257151565,False,False,"corrugated or tiled metal roof (silver / dark / painted) in Haiti, 4 ft² footprint",Q2-2025
Haiti-hurricane-matthew_00000367_pre_disaster_2f3d341c-149d-480b-a5ed-b688cf5efdf8.png,train,haiti,18.265294016332557,-73.53865401451071,MetalSheetMaterials,Haiti,North America,,,,5.3956255018509225,False,False,"corrugated or tiled metal roof (silver / dark / painted) in Haiti, 5 ft² footprint",Q2-2025
Haiti-hurricane-matthew_00000367_pre_disaster_79f0d70e-677d-4ea1-a28e-3a12b138c3ed.png,train,haiti,18.264762677946912,-73.54064234108091,MetalSheetMaterials,Haiti,North America,,,,5.632609587028247,False,False,"corrugated or tiled metal roof (silver / dark / painted) in Haiti, 5 ft² footprint",Q2-2025
Haiti-hurricane-matthew_00000367_pre_disaster_8f5baf4b-9976-4a16-a613-07de5d180477.png,train,haiti,18.264702433169376,-73.54077377282776,MetalSheetMaterials,Haiti,North America,,,,4.869770957942271,False,False,"corrugated or tiled metal roof (silver / dark / painted) in Haiti, 4 ft² footprint",Q2-2025
Haiti-hurricane-matthew_00000367_pre_disaster_aab0532a-a821-4054-8ccf-9c71a8c751db.png,train,haiti,18.266490702294533,-73.53665810729247,Unknown,Haiti,North America,,,,5.09565636079303,False,False,"unknown roofing material in Haiti, 5 ft² footprint",Q2-2025
Haiti-hurricane-matthew_00000368_pre_disaster_4a403923-10d7-42a9-a2a5-e00072fdac0b.png,train,haiti,18.65134219581522,-74.12053119157058,AmorphousConcrete,Haiti,North America,,,Flat,13.01171892534748,False,False,"flat flat concrete / cement roof in Haiti, 13 ft² footprint",Q2-2025
Haiti-hurricane-matthew_00000368_pre_disaster_4c1611c8-26d2-4d3f-9044-2ac6dad329c0.png,train,haiti,18.65154524212078,-74.12046914593647,AmorphousConcrete,Haiti,North America,,,Flat,18.62701641185791,False,True,"flat flat concrete / cement roof in Haiti, multiple materials detected, 18 ft² footprint",Q2-2025
Haiti-hurricane-matthew_00000368_pre_disaster_71407e26-c111-4893-b0db-653418226d27.png,train,haiti,18.651184737714065,-74.12335652944796,AmorphousConcrete,Haiti,North America,,,Flat,4.965350492212174,False,False,"flat flat concrete / cement roof in Haiti, 4 ft² footprint",Q2-2025
Haiti-hurricane-matthew_00000368_pre_disaster_8b104e15-7ac5-4dd6-a3f2-2bca57b39067.png,train,haiti,18.65032815386095,-74.1217289139358,MetalSheetMaterials,Haiti,North America,,,,3.602888076733236,False,False,"corrugated or tiled metal roof (silver / dark / painted) in Haiti, 3 ft² footprint",Q2-2025
Haiti-hurricane-matthew_00000368_pre_disaster_a2f4ecff-7d43-4361-97c7-f3c21ab61bbc.png,train,haiti,18.650207829508716,-74.1218908753522,MetalSheetMaterials,Haiti,North America,,,,8.990339944887623,False,False,"corrugated or tiled metal roof (silver / dark / painted) in Haiti, 8 ft² footprint",Q2-2025
Haiti-hurricane-matthew_00000368_pre_disaster_b24a2178-94a0-42c1-b092-a06e718bc6bd.png,train,haiti,18.64981632604157,-74.12307300511623,Unknown,Haiti,North America,,,,4.186536500368525,False,False,"unknown roofing material in Haiti, 4 ft² footprint",Q2-2025
Haiti-hurricane-matthew_00000372_pre_disaster_8b5705d9-d4b0-40fe-83a2-3e1c3ff25a77.png,train,haiti,18.650689657176013,-74.11744370368248,MetalSheetMaterials,Haiti,North America,,,,18.30450104782609,False,False,"corrugated or tiled metal roof (silver / dark / painted) in Haiti, 18 ft² footprint",Q2-2025
Haiti-hurricane-matthew_00000372_pre_disaster_f3c93485-6902-4d67-9c98-9252e4d908aa.png,train,haiti,18.65044495885597,-74.11592615677219,AmorphousConcrete,Haiti,North America,,,Flat,15.971496402527327,False,False,"flat flat concrete / cement roof in Haiti, 15 ft² footprint",Q2-2025
Haiti-hurricane-matthew_00000373_pre_disaster_9e2dde46-86f5-4df8-a78a-2275e089f93f.png,train,haiti,18.265959299925928,-73.52841889002687,MetalSheetMaterials,Haiti,North America,,,,3.720853758568776,False,False,"corrugated or tiled metal roof (silver / dark / painted) in Haiti, 3 ft² footprint",Q2-2025
Haiti-hurricane-matthew_00000380_pre_disaster_4d52f702-893d-4cf2-8139-e4b2c902f5c4.png,train,haiti,18.250571401122617,-74.10037390415138,Unknown,Haiti,North America,,,,3.300921597455983,False,False,"unknown roofing material in Haiti, 3 ft² footprint",Q2-2025
Little_Rock_Arkansas-midwest-flooding_00000001_pre_disaster_7511c189-5e3b-4642-982f-2ebc0604d90c.png,train,little_rock_arkansas,34.71402435739097,-92.36604557328678,AsphaltTiles,United States,North America,,,,6.828990896289235,False,False,"asphalt shingle pitched roof in Little Rock Arkansas, 6 ft² footprint",Q2-2025
Little_Rock_Arkansas-midwest-flooding_00000001_pre_disaster_7815f3f1-e2d8-429b-9ce2-efc336035930.png,train,little_rock_arkansas,34.71669688339979,-92.36404823858894,AsphaltTiles,United States,North America,,,,7.505327566006508,False,False,"asphalt shingle pitched roof in Little Rock Arkansas, 7 ft² footprint",Q2-2025
Little_Rock_Arkansas-midwest-flooding_00000001_pre_disaster_823878fc-3f18-4bb2-88d9-afda9d64f27d.png,train,little_rock_arkansas,34.716688710069405,-92.36382881683885,AsphaltTiles,United States,North America,,,,8.84169014581475,False,False,"asphalt shingle pitched roof in Little Rock Arkansas, 8 ft² footprint",Q2-2025
Little_Rock_Arkansas-midwest-flooding_00000001_pre_disaster_b1931711-38b2-4221-a1ad-7b9e914425e0.png,train,little_rock_arkansas,34.7139570607854,-92.36381211523825,MetalSheetMaterials,United States,North America,,,,157.2137964803189,False,False,"corrugated or tiled metal roof (silver / dark / painted) in Little Rock Arkansas, 157 ft² footprint",Q2-2025
Little_Rock_Arkansas-midwest-flooding_00000001_pre_disaster_f6e5be1e-311c-4a80-af47-ff5f91efe8b7.png,train,little_rock_arkansas,34.71314791071022,-92.36638333306362,AsphaltTiles,United States,North America,,,,33.841388715632284,False,False,"asphalt shingle pitched roof in Little Rock Arkansas, 33 ft² footprint",Q2-2025
Little_Rock_Arkansas-midwest-flooding_00000003_pre_disaster_2a72abcf-b5fa-4733-930c-51246214da2c.png,train,little_rock_arkansas,34.76854813472487,-92.32487367762806,AsphaltTiles,United States,North America,,,,14.357540205225952,False,False,"asphalt shingle pitched roof in Little Rock Arkansas, 14 ft² footprint",Q2-2025
Little_Rock_Arkansas-midwest-flooding_00000003_pre_disaster_2f903fb5-300d-4172-b888-6c6ade3e51f2.png,train,little_rock_arkansas,34.768206129780175,-92.3239468246628,Unknown,United States,North America,,,,10.788772050335796,False,False,"unknown roofing material in Little Rock Arkansas, 10 ft² footprint",Q2-2025
Little_Rock_Arkansas-midwest-flooding_00000003_pre_disaster_41a74a6d-d145-4852-8a97-142d3e5d76f9.png,train,little_rock_arkansas,34.76730611285275,-92.32516341758094,AsphaltTiles,United States,North America,,,,14.494723931941175,False,False,"asphalt shingle pitched roof in Little Rock Arkansas, 14 ft² footprint",Q2-2025
Little_Rock_Arkansas-midwest-flooding_00000003_pre_disaster_424d6982-3854-41bb-b2ff-4f6c33ceabab.png,train,little_rock_arkansas,34.77058144032748,-92.32567523507232,AsphaltTiles,United States,North America,,,,7.436782544299163,False,False,"asphalt shingle pitched roof in Little Rock Arkansas, 7 ft² footprint",Q2-2025
Little_Rock_Arkansas-midwest-flooding_00000003_pre_disaster_4d360dfa-5ccd-4496-b014-37dbce9626de.png,train,little_rock_arkansas,34.76813366674946,-92.32562123582778,AsphaltTiles,United States,North America,,,,10.04681052251892,False,False,"asphalt shingle pitched roof in Little Rock Arkansas, 10 ft² footprint",Q2-2025
Little_Rock_Arkansas-midwest-flooding_00000003_pre_disaster_5afeab66-d5ad-4978-8d18-aa89e76b4742.png,train,little_rock_arkansas,34.77011396120208,-92.3241153962352,AsphaltTiles,United States,North America,,,,8.219114080896075,False,False,"asphalt shingle pitched roof in Little Rock Arkansas, 8 ft² footprint",Q2-2025
Little_Rock_Arkansas-midwest-flooding_00000003_pre_disaster_6bd927af-6518-46f4-806b-4afd4f983b8a.png,train,little_rock_arkansas,34.76771730874871,-92.3245839525842,AsphaltTiles,United States,North America,,,,10.789620948983275,False,False,"asphalt shingle pitched roof in Little Rock Arkansas, 10 ft² footprint",Q2-2025
Little_Rock_Arkansas-midwest-flooding_00000003_pre_disaster_6c2a6293-987d-400e-aefb-36071eb9ebba.png,train,little_rock_arkansas,34.76973086950716,-92.32565441290149,Unknown,United States,North America,,,,12.59163989388803,False,False,"unknown roofing material in Little Rock Arkansas, 12 ft² footprint",Q2-2025
Little_Rock_Arkansas-midwest-flooding_00000003_pre_disaster_bed4bac2-accb-4609-b4b1-693337b359d2.png,train,little_rock_arkansas,34.77046395499682,-92.32683215397816,AsphaltTiles,United States,North America,,,,13.616055999923592,False,False,"asphalt shingle pitched roof in Little Rock Arkansas, 13 ft² footprint",Q2-2025
Little_Rock_Arkansas-midwest-flooding_00000003_pre_disaster_c8e91037-9c97-48dd-b61d-bdebdacdf1ae.png,train,little_rock_arkansas,34.76896146307056,-92.32726555302612,AsphaltTiles,United States,North America,,,,12.606324004649762,False,False,"asphalt shingle pitched roof in Little Rock Arkansas, 12 ft² footprint",Q2-2025
Little_Rock_Arkansas-midwest-flooding_00000003_pre_disaster_d803f919-62cc-4414-aedc-37a13b474e2f.png,train,little_rock_arkansas,34.76899840986123,-92.32296031299416,Unknown,United States,North America,,,,10.60879947521638,False,False,"unknown roofing material in Little Rock Arkansas, 10 ft² footprint",Q2-2025
Little_Rock_Arkansas-midwest-flooding_00000003_pre_disaster_f7ed7299-aeba-4168-94d2-45babf80cde3.png,train,little_rock_arkansas,34.76736987490385,-92.32622288005028,AsphaltTiles,United States,North America,,,,6.842678062187081,False,False,"asphalt shingle pitched roof in Little Rock Arkansas, 6 ft² footprint",Q2-2025
Little_Rock_Arkansas-midwest-flooding_00000007_pre_disaster_118e4ea8-088d-48ea-a3f5-aa6393b35147.png,train,little_rock_arkansas,34.767257593488566,-92.31909841651796,Unknown,United States,North America,,,,11.885285404535166,False,False,"unknown roofing material in Little Rock Arkansas, 11 ft² footprint",Q2-2025
Little_Rock_Arkansas-midwest-flooding_00000007_pre_disaster_1337f480-8337-4f0c-a231-b6ef505dc22b.png,train,little_rock_arkansas,34.770707151394184,-92.32208470512398,AmorphousMembrane,United States,North America,,,Flat,29.93183434190464,False,False,"flat membrane roof (bright EPDM / TPO) in Little Rock Arkansas, 29 ft² footprint",Q2-2025
Little_Rock_Arkansas-midwest-flooding_00000007_pre_disaster_dd7611ab-55de-4b6f-a93a-b66a10e4eb8b.png,train,little_rock_arkansas,34.76946431957054,-92.3187208796065,Unknown,United States,North America,,,,13.682700507349224,False,False,"unknown roofing material in Little Rock Arkansas, 13 ft² footprint",Q2-2025
Little_Rock_Arkansas-midwest-flooding_00000007_pre_disaster_df089ac0-95c2-48fe-8d11-fcdb05431359.png,train,little_rock_arkansas,34.76823489949348,-92.32124069072898,Unknown,United States,North America,,,,11.8258149591454,False,False,"unknown roofing material in Little Rock Arkansas, 11 ft² footprint",Q2-2025
Little_Rock_Arkansas-midwest-flooding_00000013_pre_disaster_02f4ef0e-ddd4-417f-b921-dedbe474039b.png,train,little_rock_arkansas,34.77708842388076,-92.33683320574532,AsphaltTiles,United States,North America,,,,9.340863313284212,False,False,"asphalt shingle pitched roof in Little Rock Arkansas, 9 ft² footprint",Q2-2025
Little_Rock_Arkansas-midwest-flooding_00000013_pre_disaster_0c4b5843-8540-4bbd-bf72-c920f0e57d7e.png,train,little_rock_arkansas,34.775726224259046,-92.33568247815356,AsphaltTiles,United States,North America,,,,14.454343265514918,False,False,"asphalt shingle pitched roof in Little Rock Arkansas, 14 ft² footprint",Q2-2025
Little_Rock_Arkansas-midwest-flooding_00000013_pre_disaster_116b024f-2d71-4e18-8334-f375ef631cfa.png,train,little_rock_arkansas,34.778232413561305,-92.33368720971647,AsphaltTiles,United States,North America,,,,11.475193855467808,False,False,"asphalt shingle pitched roof in Little Rock Arkansas, 11 ft² footprint",Q2-2025
Little_Rock_Arkansas-midwest-flooding_00000013_pre_disaster_182ff67e-f052-41af-b6bf-b90368526474.png,train,little_rock_arkansas,34.778793414030964,-92.33565100038118,AsphaltTiles,United States,North America,,,,8.4908974268174,False,False,"asphalt shingle pitched roof in Little Rock Arkansas, 8 ft² footprint",Q2-2025
Little_Rock_Arkansas-midwest-flooding_00000018_pre_disaster_38594e9a-e737-4399-a554-9e69f70e237c.png,train,little_rock_arkansas,34.7567954963564,-92.34947203277628,AsphaltTiles,United States,North America,,,,7.6317069017181955,False,False,"asphalt shingle pitched roof in Little Rock Arkansas, 7 ft² footprint",Q2-2025
Little_Rock_Arkansas-midwest-flooding_00000018_pre_disaster_76624c73-5a49-462a-a5c1-a1fa0ed0d913.png,train,little_rock_arkansas,34.755718367775934,-92.35136342773612,AsphaltTiles,United States,North America,,,,8.683847860148948,False,False,"asphalt shingle pitched roof in Little Rock Arkansas, 8 ft² footprint",Q2-2025
Little_Rock_Arkansas-midwest-flooding_00000018_pre_disaster_81bfb18c-da70-407e-af67-452ffeb83871.png,train,little_rock_arkansas,34.75831562141051,-92.350077332125,AsphaltTiles,United States,North America,,,,6.180860501272202,False,False,"asphalt shingle pitched roof in Little Rock Arkansas, 6 ft² footprint",Q2-2025
Little_Rock_Arkansas-midwest-flooding_00000018_pre_disaster_9056478d-7536-4da4-ad60-8e0e21e2864c.png,train,little_rock_arkansas,34.75608617448301,-92.35242174302218,AsphaltTiles,United States,North America,,,,6.582292886436703,False,False,"asphalt shingle pitched roof in Little Rock Arkansas, 6 ft² footprint",Q2-2025
Little_Rock_Arkansas-midwest-flooding_00000019_pre_disaster_dedd586b-71eb-4487-991e-3859e5f5c402.png,train,little_rock_arkansas,34.78002470094018,-92.36921736612014,AsphaltTiles,United States,North America,,,,7.9792212732811105,False,False,"asphalt shingle pitched roof in Little Rock Arkansas, 7 ft² footprint",Q2-2025
Little_Rock_Arkansas-midwest-flooding_00000020_pre_disaster_b1350e2e-a696-4957-9530-3ec4fa2ab0ba.png,train,little_rock_arkansas,34.76456861021164,-92.35154174044708,AsphaltTiles,United States,North America,,,,14.650233552991356,False,False,"asphalt shingle pitched roof in Little Rock Arkansas, 14 ft² footprint",Q2-2025
Little_Rock_Arkansas-midwest-flooding_00000020_pre_disaster_b8441a73-3711-452e-bf49-0b13d1f2557a.png,train,little_rock_arkansas,34.76297345607016,-92.3509955737824,AsphaltTiles,United States,North America,,,,7.136986672643378,False,False,"asphalt shingle pitched roof in Little Rock Arkansas, 7 ft² footprint",Q2-2025
Little_Rock_Arkansas-midwest-flooding_00000020_pre_disaster_ba58d8a0-80bd-406f-98c8-71deb63e91b5.png,train,little_rock_arkansas,34.76468281009311,-92.34925943983342,AsphaltTiles,United States,North America,,,,6.735678741872828,False,False,"asphalt shingle pitched roof in Little Rock Arkansas, 6 ft² footprint",Q2-2025
Little_Rock_Arkansas-midwest-flooding_00000023_pre_disaster_4e1f7739-42f0-418e-bec4-87292aa9417d.png,train,little_rock_arkansas,34.77548324207918,-92.36262515186404,AmorphousMembrane,United States,North America,,,Flat,9.699116253177465,False,False,"flat membrane roof (bright EPDM / TPO) in Little Rock Arkansas, 9 ft² footprint",Q2-2025
Little_Rock_Arkansas-midwest-flooding_00000023_pre_disaster_8ab60a14-3370-49bb-9917-8da925f634ce.png,train,little_rock_arkansas,34.77383291563239,-92.36203243400816,AmorphousAsphalt,United States,North America,,,Flat,23.667461907012203,False,False,"flat asphalt-coated roof (bitumen or rolled roofing) in Little Rock Arkansas, 23 ft² footprint",Q2-2025
Little_Rock_Arkansas-midwest-flooding_00000036_pre_disaster_2efbdb7e-0d0e-4a9d-9a71-508d3a029562.png,train,little_rock_arkansas,34.774093130764356,-92.30799010136128,AsphaltTiles,United States,North America,,,,19.403051172567384,False,False,"asphalt shingle pitched roof in Little Rock Arkansas, 19 ft² footprint",Q2-2025
Lynn_Haven_Florida-hurricane-michael_00000239_pre_disaster_300cdf3b-926c-4aaf-a704-c937c768bac1.png,train,lynn_haven_florida,30.152371391613908,-85.62081570414284,AsphaltTiles,United States,North America,,,,5.918677659063681,False,False,"asphalt shingle pitched roof in Lynn Haven Florida, 5 ft² footprint",Q2-2025
Lynn_Haven_Florida-hurricane-michael_00000239_pre_disaster_4515da94-4760-45a8-bd92-7b0a9d767db4.png,train,lynn_haven_florida,30.15202560376957,-85.62177701982208,AsphaltTiles,United States,North America,,,,16.44424458344716,False,False,"asphalt shingle pitched roof in Lynn Haven Florida, 16 ft² footprint",Q2-2025
Lynn_Haven_Florida-hurricane-michael_00000240_pre_disaster_82620f87-e3ea-44ae-8b5f-7bb5581698a7.png,train,lynn_haven_florida,30.16620499496994,-85.64088325117842,MetalSheetMaterials,United States,North America,,,,14.277166555431014,False,False,"corrugated or tiled metal roof (silver / dark / painted) in Lynn Haven Florida, 14 ft² footprint",Q2-2025
Lynn_Haven_Florida-hurricane-michael_00000240_pre_disaster_a9847a5c-144c-4372-b1ae-e772f9028b21.png,train,lynn_haven_florida,30.166460359355657,-85.64053911555266,MetalSheetMaterials,United States,North America,,,,30.494241491278736,False,False,"corrugated or tiled metal roof (silver / dark / painted) in Lynn Haven Florida, 30 ft² footprint",Q2-2025
Lynn_Haven_Florida-hurricane-michael_00000241_pre_disaster_a644b7a1-7332-457d-88d9-d66f09132b34.png,train,lynn_haven_florida,30.19085955845965,-85.66391194288677,AsphaltTiles,United States,North America,,,,33.65563682507542,False,False,"asphalt shingle pitched roof in Lynn Haven Florida, 33 ft² footprint",Q2-2025
Lynn_Haven_Florida-hurricane-michael_00000241_pre_disaster_f10645f4-a136-405e-8f13-6097cef6e405.png,train,lynn_haven_florida,30.19151108507976,-85.66197452354764,AsphaltTiles,United States,North America,,,,25.7442306223214,False,False,"asphalt shingle pitched roof in Lynn Haven Florida, 25 ft² footprint",Q2-2025
Lynn_Haven_Florida-hurricane-michael_00000467_pre_disaster_40433eb6-ddfb-4477-8a93-54c5da444e1c.png,train,lynn_haven_florida,30.1691943110822,-85.77379267480458,AsphaltTiles,United States,North America,,,,10.405529479428102,False,False,"asphalt shingle pitched roof in Lynn Haven Florida, 10 ft² footprint",Q2-2025
Lynn_Haven_Florida-hurricane-michael_00000467_pre_disaster_41308eaa-52b6-49d5-9cb2-ce8d66d421fb.png,train,lynn_haven_florida,30.16883862036497,-85.77316022386981,AsphaltTiles,United States,North America,,,,9.639496723691249,False,False,"asphalt shingle pitched roof in Lynn Haven Florida, 9 ft² footprint",Q2-2025
Lynn_Haven_Florida-hurricane-michael_00000467_pre_disaster_65ebfc43-6a2a-4dd0-a8bc-b4945dea613b.png,train,lynn_haven_florida,30.167253606789725,-85.7761475378365,AsphaltTiles,United States,North America,,,,9.135021457520354,False,False,"asphalt shingle pitched roof in Lynn Haven Florida, 9 ft² footprint",Q2-2025
Lynn_Haven_Florida-hurricane-michael_00000467_pre_disaster_74d25e75-2436-458c-ad64-5877b3703978.png,train,lynn_haven_florida,30.167761174934725,-85.7735935162754,AsphaltTiles,United States,North America,,,,10.320269058243928,False,False,"asphalt shingle pitched roof in Lynn Haven Florida, 10 ft² footprint",Q2-2025
Lynn_Haven_Florida-hurricane-michael_00000467_pre_disaster_789cb96e-4b61-4b5d-804c-fcd56896b6ca.png,train,lynn_haven_florida,30.167676927103667,-85.77527370215503,AsphaltTiles,United States,North America,,,,8.908091240966098,False,False,"asphalt shingle pitched roof in Lynn Haven Florida, 8 ft² footprint",Q2-2025
Lynn_Haven_Florida-hurricane-michael_00000467_pre_disaster_94014d6c-9f31-4d7c-a8d4-2710464a93b1.png,train,lynn_haven_florida,30.16993636376028,-85.7769503924772,AsphaltTiles,United States,North America,,,,8.46162590377122,False,False,"asphalt shingle pitched roof in Lynn Haven Florida, 8 ft² footprint",Q2-2025
Mexico_City_Mexico-mexico-earthquake_00000177_pre_disaster_ee85f2d4-67a5-43f4-bf82-578b2548a568.png,train,mexico_city_mexico,19.259039025683126,-99.18572683693976,AmorphousConcrete,Mexico,North America,,,Flat,5.652870155530319,False,False,"flat flat concrete / cement roof in Mexico City Mexico, 5 ft² footprint",Q2-2025
Mexico_City_Mexico-mexico-earthquake_00000181_pre_disaster_09b4e6d4-8687-4544-a6f4-86555b14d3d4.png,train,mexico_city_mexico,19.258668212960043,-99.17641943844446,ClayTiles,Mexico,North America,,,,7.183627227072143,False,False,"clay tile / ceramic tile roof in Mexico City Mexico, 7 ft² footprint",Q2-2025
Mexico_City_Mexico-mexico-earthquake_00000181_pre_disaster_779bb1b3-2016-4667-b325-1da50ae6e327.png,train,mexico_city_mexico,19.25552518949617,-99.17301620070442,MetalSheetMaterials,Mexico,North America,,,,4.113025849948474,False,False,"corrugated or tiled metal roof (silver / dark / painted) in Mexico City Mexico, 4 ft² footprint",Q2-2025
Mexico_City_Mexico-mexico-earthquake_00000181_pre_disaster_86ce5ac2-0a41-4a78-8587-cb6e19bce2ae.png,train,mexico_city_mexico,19.255955384150965,-99.17530781091868,MetalSheetMaterials,Mexico,North America,,,,3.5824941873562626,False,False,"corrugated or tiled metal roof (silver / dark / painted) in Mexico City Mexico, 3 ft² footprint",Q2-2025
Mexico_City_Mexico-mexico-earthquake_00000181_pre_disaster_8d3437ce-4b65-4711-a3d6-5901a7be8681.png,train,mexico_city_mexico,19.25632312896133,-99.1735358089486,AmorphousConcrete,Mexico,North America,,,Flat,4.753229157900849,False,False,"flat flat concrete / cement roof in Mexico City Mexico, 4 ft² footprint",Q2-2025
Mexico_City_Mexico-mexico-earthquake_00000181_pre_disaster_c32d72fd-ac5e-4ea0-aaba-6b5f326906b2.png,train,mexico_city_mexico,19.257670522104995,-99.17492040643066,MetalSheetMaterials,Mexico,North America,,,,50.289530928254905,False,False,"corrugated or tiled metal roof (silver / dark / painted) in Mexico City Mexico, 50 ft² footprint",Q2-2025
Mexico_City_Mexico-mexico-earthquake_00000181_pre_disaster_f1972b86-9486-4d71-a337-4f09bacf8e48.png,train,mexico_city_mexico,19.256895533501776,-99.17558008147388,MetalSheetMaterials,Mexico,North America,,,,17.634523375251295,False,False,"corrugated or tiled metal roof (silver / dark / painted) in Mexico City Mexico, 17 ft² footprint",Q2-2025
Mexico_City_Mexico-mexico-earthquake_00000182_pre_disaster_c9e03a56-ff3c-4f43-9ca2-fb13cd5e2c03.png,train,mexico_city_mexico,19.248401787661233,-99.17308524153782,ClayTiles,Mexico,North America,,,,2.77934606562528,False,False,"clay tile / ceramic tile roof in Mexico City Mexico, 2 ft² footprint",Q2-2025
Mexico_City_Mexico-mexico-earthquake_00000186_pre_disaster_14523fef-bc86-43b1-83e3-4c4ab5cdbeb2.png,train,mexico_city_mexico,19.2487675486443,-99.16703023674316,ClayTiles,Mexico,North America,,,,7.159595465099277,False,False,"clay tile / ceramic tile roof in Mexico City Mexico, 7 ft² footprint",Q2-2025
Mexico_City_Mexico-mexico-earthquake_00000186_pre_disaster_68142ae2-54ed-4cbb-8511-ff694b41b617.png,train,mexico_city_mexico,19.248845144593034,-99.16576576035072,ClayTiles,Mexico,North America,,,,3.179054762784532,False,False,"clay tile / ceramic tile roof in Mexico City Mexico, 3 ft² footprint",Q2-2025
Mexico_City_Mexico-mexico-earthquake_00000186_pre_disaster_b7d35037-891d-4d5d-ba99-9395361d39c1.png,train,mexico_city_mexico,19.248758688989447,-99.1652732928692,AmorphousFabric,Mexico,North America,,,Flat,28.351688401500024,False,False,"flat tensile fabric roof (PVC / PTFE / canvas) in Mexico City Mexico, 28 ft² footprint",Q2-2025
Mexico_City_Mexico-mexico-earthquake_00000186_pre_disaster_c48118c8-6539-4067-9037-ea5beb9af0e0.png,train,mexico_city_mexico,19.250728938685583,-99.16549836868002,AmorphousFabric,Mexico,North America,,,Flat,17.975401852206236,False,False,"flat tensile fabric roof (PVC / PTFE / canvas) in Mexico City Mexico, 17 ft² footprint",Q2-2025
Palu_Indonesia-palu-tsunami_00000000_pre_disaster_6500a7fd-6222-4a78-897b-1ffc8c380adb.png,train,palu_indonesia,-0.789698371538568,119.7974356660716,MetalSheetMaterials,Indonesia,Asia,,,,4.254149373915589,False,False,"corrugated or tiled metal roof (silver / dark / painted) in Palu Indonesia, 4 ft² footprint",Q2-2025
Palu_Indonesia-palu-tsunami_00000000_pre_disaster_9ceaf385-90bd-4e49-bbd6-d965c44a3b70.png,train,palu_indonesia,-0.790631119003754,119.79764053942404,MetalSheetMaterials,Indonesia,Asia,,,,5.856288991680013,False,False,"corrugated or tiled metal roof (silver / dark / painted) in Palu Indonesia, 5 ft² footprint",Q2-2025
Palu_Indonesia-palu-tsunami_00000000_pre_disaster_f1b718f8-6744-4723-8361-6ae658c72ffa.png,train,palu_indonesia,-0.7868087060678317,119.79785905424563,MetalSheetMaterials,Indonesia,Asia,,,,3.168926955817834,False,False,"corrugated or tiled metal roof (silver / dark / painted) in Palu Indonesia, 3 ft² footprint",Q2-2025
Palu_Indonesia-palu-tsunami_00000001_pre_disaster_2219982a-04fe-4401-8e3a-67e5fc106d7a.png,train,palu_indonesia,-0.7894275060326054,119.80165255880306,MetalSheetMaterials,Indonesia,Asia,,,,4.479890700011979,False,False,"corrugated or tiled metal roof (silver / dark / painted) in Palu Indonesia, 4 ft² footprint",Q2-2025
Palu_Indonesia-palu-tsunami_00000001_pre_disaster_2574afe2-40ef-4d32-9f64-29ee76f2a302.png,train,palu_indonesia,-0.7897660272637895,119.8016018476664,MetalSheetMaterials,Indonesia,Asia,,,,8.888521424943285,False,True,"corrugated or tiled metal roof (silver / dark / painted) in Palu Indonesia, multiple materials detected, 8 ft² footprint",Q2-2025
Palu_Indonesia-palu-tsunami_00000001_pre_disaster_5f1ad1d1-07ae-472e-b83d-e4b09af407b2.png,train,palu_indonesia,-0.7899164545705414,119.80137492960372,MetalSheetMaterials,Indonesia,Asia,,,,5.061151549142257,False,False,"corrugated or tiled metal roof (silver / dark / painted) in Palu Indonesia, 5 ft² footprint",Q2-2025
Palu_Indonesia-palu-tsunami_00000001_pre_disaster_af4b38b8-a1e0-4d5f-8303-0866a0ead9e8.png,train,palu_indonesia,-0.7890864516553016,119.80118382612352,MetalSheetMaterials,Indonesia,Asia,,,,3.5910057981481662,False,False,"corrugated or tiled metal roof (silver / dark / painted) in Palu Indonesia, 3 ft² footprint",Q2-2025
Palu_Indonesia-palu-tsunami_00000001_pre_disaster_f2846cc0-7ee2-4b7b-904e-c90cd230c81c.png,train,palu_indonesia,-0.7895846049161532,119.80146022992832,MetalSheetMaterials,Indonesia,Asia,,,,4.691745665524572,False,False,"corrugated or tiled metal roof (silver / dark / painted) in Palu Indonesia, 4 ft² footprint",Q2-2025
Palu_Indonesia-palu-tsunami_00000002_pre_disaster_0df66d32-c4c9-4b46-a49d-ffccdd2ba25f.png,train,palu_indonesia,-0.7045232527557382,119.85009493151829,MetalSheetMaterials,Indonesia,Asia,,,,4.880536686728536,False,False,"corrugated or tiled metal roof (silver / dark / painted) in Palu Indonesia, 4 ft² footprint",Q2-2025
Palu_Indonesia-palu-tsunami_00000002_pre_disaster_0e8c9168-9b01-4bdc-828f-d3d527903284.png,train,palu_indonesia,-0.706235223171408,119.85211554611249,MetalSheetMaterials,Indonesia,Asia,,,,4.413413296019053,False,False,"corrugated or tiled metal roof (silver / dark / painted) in Palu Indonesia, 4 ft² footprint",Q2-2025
Palu_Indonesia-palu-tsunami_00000002_pre_disaster_0ea45495-6876-4a14-8e1f-9e850cd0538e.png,train,palu_indonesia,-0.7065156294785029,119.85081167999856,MetalSheetMaterials,Indonesia,Asia,,,,6.106705674623376,False,False,"corrugated or tiled metal roof (silver / dark / painted) in Palu Indonesia, 6 ft² footprint",Q2-2025
Palu_Indonesia-palu-tsunami_00000002_pre_disaster_1527a107-e305-4996-bb44-39a656dca4e1.png,train,palu_indonesia,-0.706682063727492,119.85342536957162,MetalSheetMaterials,Indonesia,Asia,,,,3.4389267684031206,False,False,"corrugated or tiled metal roof (silver / dark / painted) in Palu Indonesia, 3 ft² footprint",Q2-2025
Palu_Indonesia-palu-tsunami_00000002_pre_disaster_823fcb55-1fde-4d92-8ea4-8d9cbae606f3.png,train,palu_indonesia,-0.7046166164850527,119.8521464689736,MetalSheetMaterials,Indonesia,Asia,,,,6.874290913517289,False,False,"corrugated or tiled metal roof (silver / dark / painted) in Palu Indonesia, 6 ft² footprint",Q2-2025
Palu_Indonesia-palu-tsunami_00000005_pre_disaster_3528615f-71c0-4501-9673-70108f1264e7.png,train,palu_indonesia,-0.7069400406495859,119.85529467192188,MetalSheetMaterials,Indonesia,Asia,,,,4.171204402829772,False,False,"corrugated or tiled metal roof (silver / dark / painted) in Palu Indonesia, 4 ft² footprint",Q2-2025
Palu_Indonesia-palu-tsunami_00000005_pre_disaster_8777655e-c017-44b0-a231-020d17e7e9ec.png,train,palu_indonesia,-0.7057628008372051,119.85863581993026,MetalSheetMaterials,Indonesia,Asia,,,,6.768838696560877,False,False,"corrugated or tiled metal roof (silver / dark / painted) in Palu Indonesia, 6 ft² footprint",Q2-2025
Palu_Indonesia-palu-tsunami_00000005_pre_disaster_c48e42db-3aec-435a-a731-b2924a1946af.png,train,palu_indonesia,-0.7071685401791586,119.85519503128774,MetalSheetMaterials,Indonesia,Asia,,,,4.114861603751524,False,False,"corrugated or tiled metal roof (silver / dark / painted) in Palu Indonesia, 4 ft² footprint",Q2-2025
Palu_Indonesia-palu-tsunami_00000005_pre_disaster_ef032900-be5c-4ef5-a1e4-2e6e364c836a.png,train,palu_indonesia,-0.7043849089761748,119.85451578364602,MetalSheetMaterials,Indonesia,Asia,,,,5.758222423804517,False,False,"corrugated or tiled metal roof (silver / dark / painted) in Palu Indonesia, 5 ft² footprint",Q2-2025
Palu_Indonesia-palu-tsunami_00000006_pre_disaster_1bf47159-0b22-4a8d-94df-ce5a42100d21.png,train,palu_indonesia,-0.7338935936017158,119.86204720489698,MetalSheetMaterials,Indonesia,Asia,,,,5.016184603445844,False,False,"corrugated or tiled metal roof (silver / dark / painted) in Palu Indonesia, 5 ft² footprint",Q2-2025
Westport_Oklahoma-midwest-flooding_00000237_pre_disaster_930a33d1-366d-4cc1-a779-e748d4d163a5.png,train,westport_oklahoma,36.217772083214776,-96.26295712079327,Unknown,United States,North America,,,,13.371024270777854,False,False,"unknown roofing material in Westport Oklahoma, 13 ft² footprint",Q2-2025
Westport_Oklahoma-midwest-flooding_00000269_pre_disaster_84543895-2e95-4701-9b54-51d5b6cb8db2.png,train,westport_oklahoma,36.20056877394518,-96.28394254012926,MetalSheetMaterials,United States,North America,,,,29.620039138275672,False,False,"corrugated or tiled metal roof (silver / dark / painted) in Westport Oklahoma, 29 ft² footprint",Q2-2025
Westport_Oklahoma-midwest-flooding_00000269_pre_disaster_994b674c-1ccf-4428-8494-eace7de822e2.png,train,westport_oklahoma,36.20040948669094,-96.2834964691778,MetalSheetMaterials,United States,North America,,,,47.11436012371373,False,False,"corrugated or tiled metal roof (silver / dark / painted) in Westport Oklahoma, 47 ft² footprint",Q2-2025
hurricane-michael_00000162_pre_disaster_9dc9e247-f47f-4b04-9a06-9208ea80303d.png,train,hurricane,30.16518548549112,-85.61155211262849,AsphaltTiles,United States,North America,,,,42.57993617951971,False,False,"asphalt shingle pitched roof in Hurricane, 42 ft² footprint",Q2-2025
hurricane-michael_00000217_pre_disaster_35eb07ee-2f9e-4104-a9e8-0c3ab0513710.png,train,hurricane,30.20941708785993,-85.62354505920877,AsphaltTiles,United States,North America,,,,8.623923208716183,False,False,"asphalt shingle pitched roof in Hurricane, 8 ft² footprint",Q2-2025
hurricane-michael_00000230_pre_disaster_c87420fe-69c3-4073-8e3e-8ab7e611c348.png,train,hurricane,30.1498248052537,-85.62561159501779,MetalSheetMaterials,United States,North America,,,,204.795584587233,False,False,"corrugated or tiled metal roof (silver / dark / painted) in Hurricane, 204 ft² footprint",Q2-2025
hurricane-michael_00000231_pre_disaster_f9d3e163-612f-46c5-b578-a54e5f6a89d9.png,train,hurricane,30.191014208130586,-85.6685523726877,AmorphousAsphalt,United States,North America,,,Flat,94.08686072839332,False,True,"flat asphalt-coated roof (bitumen or rolled roofing) in Hurricane, multiple materials detected, 94 ft² footprint",Q2-2025
hurricane-michael_00000272_pre_disaster_e4f02768-945b-466f-8173-f4655da84baf.png,train,hurricane,30.17417110248807,-85.66847358712272,AsphaltTiles,United States,North America,,,,57.39893168145323,False,False,"asphalt shingle pitched roof in Hurricane, 57 ft² footprint",Q2-2025
hurricane-michael_00000290_pre_disaster_8c5d89ad-87db-438c-a82d-74e568fc7cfe.png,train,hurricane,30.174304211833523,-85.6407036444391,AmorphousConcrete,United States,North America,,,Flat,76.65197112050947,False,False,"flat flat concrete / cement roof in Hurricane, 76 ft² footprint",Q2-2025
hurricane-michael_00000361_pre_disaster_d091d0e3-e9ab-48f0-892a-502489c3c6af.png,train,hurricane,30.29211788050127,-85.61315609203449,AsphaltTiles,United States,North America,,,,25.79998262146216,False,False,"asphalt shingle pitched roof in Hurricane, 25 ft² footprint",Q2-2025
hurricane-michael_00000388_pre_disaster_acb29c34-e008-4a3a-b4b3-7c99c7a4c34a.png,train,hurricane,30.240216814252054,-85.61425772128656,AsphaltTiles,United States,North America,,,,17.442538245665343,False,False,"asphalt shingle pitched roof in Hurricane, 17 ft² footprint",Q2-2025
hurricane-michael_00000435_pre_disaster_2ab64ff4-f2fb-45e4-9f7d-c8f29b8c418d.png,train,hurricane,30.190431377132366,-85.68812735172018,MetalSheetMaterials,United States,North America,,,,111.58608803641022,False,False,"corrugated or tiled metal roof (silver / dark / painted) in Hurricane, 111 ft² footprint",Q2-2025
hurricane-michael_00000487_pre_disaster_0962146d-1877-4ffc-af11-7a733980cd19.png,train,hurricane,30.178126075794538,-85.75942960234512,AmorphousAsphalt,United States,North America,,,Flat,104.72373772938266,False,False,"flat asphalt-coated roof (bitumen or rolled roofing) in Hurricane, 104 ft² footprint",Q2-2025
hurricane-michael_00000499_pre_disaster_0c2b911a-86e1-4f11-bdb1-cbd95f190537.png,train,hurricane,30.195852775701667,-85.7532101831283,AsphaltTiles,United States,North America,,,,14.659119872423144,False,False,"asphalt shingle pitched roof in Hurricane, 14 ft² footprint",Q2-2025
hurricane-michael_00000536_pre_disaster_abfb680f-45a0-4e3c-90cc-bc85eaabb52c.png,train,hurricane,30.181969483472617,-85.7636753763318,MetalSheetMaterials,United States,North America,,,,17.2101403652495,False,False,"corrugated or tiled metal roof (silver / dark / painted) in Hurricane, 17 ft² footprint",Q2-2025
mexico-earthquake_00000092_pre_disaster_b2ef7463-22ba-44f8-9191-57c607c7c5d2.png,train,mexico,19.28144513463468,-99.14312866976586,AmorphousAsphalt,Mexico,North America,,,Flat,9.665107281804078,False,False,"flat asphalt-coated roof (bitumen or rolled roofing) in Mexico, 9 ft² footprint",Q2-2025
mexico-earthquake_00000093_pre_disaster_62e4f173-0f86-45a0-bde8-50fb0d3fefcb.png,train,mexico,19.29311697927482,-99.20665866740686,AmorphousMembrane,Mexico,North America,,,Flat,15.793550241929609,False,False,"flat membrane roof (bright EPDM / TPO) in Mexico, 15 ft² footprint",Q2-2025
mexico-earthquake_00000144_pre_disaster_16293f52-f408-4bff-abd5-1503d64244ac.png,train,mexico,19.373834513997533,-99.1616955722296,AmorphousAsphalt,Mexico,North America,,,Flat,39.46447262545977,False,False,"flat asphalt-coated roof (bitumen or rolled roofing) in Mexico, 39 ft² footprint",Q2-2025
midwest-flooding_00000060_pre_disaster_0647e2ea-9398-4cb1-acb4-16f19b2e165c.png,train,midwest,34.73268070597692,-92.33452673080458,AsphaltTiles,United States,North America,,,,10.332716844273124,False,False,"asphalt shingle pitched roof in Midwest, 10 ft² footprint",Q2-2025
midwest-flooding_00000061_pre_disaster_1b54ccee-a3f0-466d-adc0-5c3495b5d272.png,train,midwest,34.72462227862654,-92.3224429833598,AmorphousAsphalt,United States,North America,,,Flat,11.332717278222402,False,False,"flat asphalt-coated roof (bitumen or rolled roofing) in Midwest, 11 ft² footprint",Q2-2025
midwest-flooding_00000061_pre_disaster_e60e6445-e2fa-4e78-b8ed-f255dbfc0c2e.png,train,midwest,34.72416393859029,-92.3216691832845,AmorphousAsphalt,United States,North America,,,Flat,27.07293169569587,False,False,"flat asphalt-coated roof (bitumen or rolled roofing) in Midwest, 27 ft² footprint",Q2-2025
midwest-flooding_00000067_pre_disaster_bb5879e8-2ffc-40d2-90ca-7d53ff9a2c16.png,train,midwest,34.71969143898762,-92.34797978713073,AsphaltTiles,United States,North America,,,,86.22061851636427,False,False,"asphalt shingle pitched roof in Midwest, 86 ft² footprint",Q2-2025
midwest-flooding_00000070_pre_disaster_a8ba0e61-4e90-46f6-a9d8-3c5dfa0d91c4.png,train,midwest,34.72050659575954,-92.33089293182324,AsphaltTiles,United States,North America,,,,6.269918213989945,False,False,"asphalt shingle pitched roof in Midwest, 6 ft² footprint",Q2-2025
